[
  {
    "stop_id": 1,
    "stop_code": 1,
    "stop_name": "Avenida Valdemarín - Blanca De Castilla",
    "stop_desc": "",
    "stop_lat": 40.4701,
    "stop_lon": -3.78288,
    "zone_id": "",
    "stop_url": "http://www.emtmadrid.es/aplicaciones/Estimaciones.aspx?idStop=1&Estado=1&panel=6",
    "location_type": "",
    "parent_station": ""
  },
  {
    "stop_id": 2,
    "stop_code": 2,
    "stop_name": "Avenida Valdemarín - La Salle",
    "stop_desc": "",
    "stop_lat": 40.46862,
    "stop_lon": -3.78596,
    "zone_id": "",
    "stop_url": "http://www.emtmadrid.es/aplicaciones/Estimaciones.aspx?idStop=2&Estado=1&panel=6",
    "location_type": "",
    "parent_station": ""
  },
  {
    "stop_id": 3,
    "stop_code": 3,
    "stop_name": "Blanca De Castilla - Camino De La Zarzuela",
    "stop_desc": "",
    "stop_lat": 40.46491,
    "stop_lon": -3.78385,
    "zone_id": "",
    "stop_url": "http://www.emtmadrid.es/aplicaciones/Estimaciones.aspx?idStop=3&Estado=1&panel=6",
    "location_type": "",
    "parent_station": ""
  },
  {
    "stop_id": 4,
    "stop_code": 4,
    "stop_name": "Pléyades - Ana Teresa",
    "stop_desc": "",
    "stop_lat": 40.46139,
    "stop_lon": -3.7841,
    "zone_id": "",
    "stop_url": "http://www.emtmadrid.es/aplicaciones/Estimaciones.aspx?idStop=4&Estado=1&panel=6",
    "location_type": "",
    "parent_station": ""
  },
  {
    "stop_id": 5,
    "stop_code": 5,
    "stop_name": "Pléyades - Osa Mayor",
    "stop_desc": "",
    "stop_lat": 40.45939,
    "stop_lon": -3.78429,
    "zone_id": "",
    "stop_url": "http://www.emtmadrid.es/aplicaciones/Estimaciones.aspx?idStop=5&Estado=1&panel=6",
    "location_type": "",
    "parent_station": ""
  },
  {
    "stop_id": 6,
    "stop_code": 6,
    "stop_name": "Blanca De Castilla - Camino De La Zarzuela",
    "stop_desc": "",
    "stop_lat": 40.46494,
    "stop_lon": -3.7836,
    "zone_id": "",
    "stop_url": "http://www.emtmadrid.es/aplicaciones/Estimaciones.aspx?idStop=6&Estado=1&panel=6",
    "location_type": "",
    "parent_station": ""
  },
  {
    "stop_id": 7,
    "stop_code": 7,
    "stop_name": "Avenida Valdemarín - La Salle",
    "stop_desc": "",
    "stop_lat": 40.46841,
    "stop_lon": -3.78571,
    "zone_id": "",
    "stop_url": "http://www.emtmadrid.es/aplicaciones/Estimaciones.aspx?idStop=7&Estado=1&panel=6",
    "location_type": "",
    "parent_station": ""
  },
  {
    "stop_id": 8,
    "stop_code": 8,
    "stop_name": "Avenida Valdemarín - Blanca De Castilla",
    "stop_desc": "",
    "stop_lat": 40.46987,
    "stop_lon": -3.78209,
    "zone_id": "",
    "stop_url": "http://www.emtmadrid.es/aplicaciones/Estimaciones.aspx?idStop=8&Estado=1&panel=6",
    "location_type": "",
    "parent_station": ""
  },
  {
    "stop_id": 9,
    "stop_code": 9,
    "stop_name": "Gran Vía - Callao",
    "stop_desc": "",
    "stop_lat": 40.4204,
    "stop_lon": -3.7044,
    "zone_id": "",
    "stop_url": "http://www.emtmadrid.es/aplicaciones/Estimaciones.aspx?idStop=9&Estado=1&panel=6",
    "location_type": "",
    "parent_station": ""
  },
  {
    "stop_id": 11,
    "stop_code": 11,
    "stop_name": "Buganvilla",
    "stop_desc": "",
    "stop_lat": 40.47161,
    "stop_lon": -3.67583,
    "zone_id": "",
    "stop_url": "http://www.emtmadrid.es/aplicaciones/Estimaciones.aspx?idStop=11&Estado=1&panel=6",
    "location_type": "",
    "parent_station": ""
  },
  {
    "stop_id": 13,
    "stop_code": 13,
    "stop_name": "Guecho - Gobelas",
    "stop_desc": "",
    "stop_lat": 40.47101,
    "stop_lon": -3.81782,
    "zone_id": "",
    "stop_url": "http://www.emtmadrid.es/aplicaciones/Estimaciones.aspx?idStop=13&Estado=1&panel=6",
    "location_type": "",
    "parent_station": ""
  },
  {
    "stop_id": 14,
    "stop_code": 14,
    "stop_name": "Guecho - Gobelas",
    "stop_desc": "",
    "stop_lat": 40.47105,
    "stop_lon": -3.81757,
    "zone_id": "",
    "stop_url": "http://www.emtmadrid.es/aplicaciones/Estimaciones.aspx?idStop=14&Estado=1&panel=6",
    "location_type": "",
    "parent_station": ""
  },
  {
    "stop_id": 16,
    "stop_code": 16,
    "stop_name": "Avenida De La Victoria - Centro Comercial",
    "stop_desc": "",
    "stop_lat": 40.46689,
    "stop_lon": -3.81318,
    "zone_id": "",
    "stop_url": "http://www.emtmadrid.es/aplicaciones/Estimaciones.aspx?idStop=16&Estado=1&panel=6",
    "location_type": "",
    "parent_station": ""
  },
  {
    "stop_id": 17,
    "stop_code": 17,
    "stop_name": "El Barrial",
    "stop_desc": "",
    "stop_lat": 40.46426,
    "stop_lon": -3.80859,
    "zone_id": "",
    "stop_url": "http://www.emtmadrid.es/aplicaciones/Estimaciones.aspx?idStop=17&Estado=1&panel=6",
    "location_type": "",
    "parent_station": ""
  },
  {
    "stop_id": 18,
    "stop_code": 18,
    "stop_name": "Avenida De La Victoria - Centro Comercial",
    "stop_desc": "",
    "stop_lat": 40.46715,
    "stop_lon": -3.8136,
    "zone_id": "",
    "stop_url": "http://www.emtmadrid.es/aplicaciones/Estimaciones.aspx?idStop=18&Estado=1&panel=6",
    "location_type": "",
    "parent_station": ""
  },
  {
    "stop_id": 19,
    "stop_code": 19,
    "stop_name": "Acceso A6 - Avenida De La Victoria",
    "stop_desc": "",
    "stop_lat": 40.46909,
    "stop_lon": -3.81895,
    "zone_id": "",
    "stop_url": "http://www.emtmadrid.es/aplicaciones/Estimaciones.aspx?idStop=19&Estado=1&panel=6",
    "location_type": "",
    "parent_station": ""
  },
  {
    "stop_id": 20,
    "stop_code": 20,
    "stop_name": "Guecho - Gobelas",
    "stop_desc": "",
    "stop_lat": 40.47045,
    "stop_lon": -3.81714,
    "zone_id": "",
    "stop_url": "http://www.emtmadrid.es/aplicaciones/Estimaciones.aspx?idStop=20&Estado=1&panel=6",
    "location_type": "",
    "parent_station": ""
  },
  {
    "stop_id": 21,
    "stop_code": 21,
    "stop_name": "Motrico - Lequeitio",
    "stop_desc": "",
    "stop_lat": 40.46929,
    "stop_lon": -3.81317,
    "zone_id": "",
    "stop_url": "http://www.emtmadrid.es/aplicaciones/Estimaciones.aspx?idStop=21&Estado=1&panel=6",
    "location_type": "",
    "parent_station": ""
  },
  {
    "stop_id": 22,
    "stop_code": 22,
    "stop_name": "Amorebieta",
    "stop_desc": "",
    "stop_lat": 40.46895,
    "stop_lon": -3.81033,
    "zone_id": "",
    "stop_url": "http://www.emtmadrid.es/aplicaciones/Estimaciones.aspx?idStop=22&Estado=1&panel=6",
    "location_type": "",
    "parent_station": ""
  },
  {
    "stop_id": 23,
    "stop_code": 23,
    "stop_name": "Estadística - Geografía E Historia",
    "stop_desc": "",
    "stop_lat": 40.44814,
    "stop_lon": -3.73586,
    "zone_id": "",
    "stop_url": "http://www.emtmadrid.es/aplicaciones/Estimaciones.aspx?idStop=23&Estado=1&panel=6",
    "location_type": "",
    "parent_station": ""
  },
  {
    "stop_id": 24,
    "stop_code": 24,
    "stop_name": "Mar De Cristal",
    "stop_desc": "",
    "stop_lat": 40.46946,
    "stop_lon": -3.63769,
    "zone_id": "",
    "stop_url": "http://www.emtmadrid.es/aplicaciones/Estimaciones.aspx?idStop=24&Estado=1&panel=6",
    "location_type": "",
    "parent_station": ""
  },
  {
    "stop_id": 28,
    "stop_code": 28,
    "stop_name": "Juzgados Plaza Castilla",
    "stop_desc": "",
    "stop_lat": 40.46501,
    "stop_lon": -3.68973,
    "zone_id": "",
    "stop_url": "http://www.emtmadrid.es/aplicaciones/Estimaciones.aspx?idStop=28&Estado=1&panel=6",
    "location_type": "",
    "parent_station": ""
  },
  {
    "stop_id": 29,
    "stop_code": 29,
    "stop_name": "Juzgados Plaza Castilla",
    "stop_desc": "",
    "stop_lat": 40.46508,
    "stop_lon": -3.6892,
    "zone_id": "",
    "stop_url": "http://www.emtmadrid.es/aplicaciones/Estimaciones.aspx?idStop=29&Estado=1&panel=6",
    "location_type": "",
    "parent_station": ""
  },
  {
    "stop_id": 30,
    "stop_code": 30,
    "stop_name": "Plaza Castilla",
    "stop_desc": "",
    "stop_lat": 40.46619,
    "stop_lon": -3.68813,
    "zone_id": "",
    "stop_url": "http://www.emtmadrid.es/aplicaciones/Estimaciones.aspx?idStop=30&Estado=1&panel=6",
    "location_type": "",
    "parent_station": ""
  },
  {
    "stop_id": 31,
    "stop_code": 31,
    "stop_name": "Plaza Castilla",
    "stop_desc": "",
    "stop_lat": 40.46642,
    "stop_lon": -3.68833,
    "zone_id": "",
    "stop_url": "http://www.emtmadrid.es/aplicaciones/Estimaciones.aspx?idStop=31&Estado=1&panel=6",
    "location_type": "",
    "parent_station": ""
  },
  {
    "stop_id": 32,
    "stop_code": 32,
    "stop_name": "Castellana - Rosario Pino",
    "stop_desc": "",
    "stop_lat": 40.46183,
    "stop_lon": -3.68999,
    "zone_id": "",
    "stop_url": "http://www.emtmadrid.es/aplicaciones/Estimaciones.aspx?idStop=32&Estado=1&panel=6",
    "location_type": "",
    "parent_station": ""
  },
  {
    "stop_id": 33,
    "stop_code": 33,
    "stop_name": "Castellana - Rosario Pino",
    "stop_desc": "",
    "stop_lat": 40.46181,
    "stop_lon": -3.68953,
    "zone_id": "",
    "stop_url": "http://www.emtmadrid.es/aplicaciones/Estimaciones.aspx?idStop=33&Estado=1&panel=6",
    "location_type": "",
    "parent_station": ""
  },
  {
    "stop_id": 34,
    "stop_code": 34,
    "stop_name": "Cuzco",
    "stop_desc": "",
    "stop_lat": 40.45828,
    "stop_lon": -3.69032,
    "zone_id": "",
    "stop_url": "http://www.emtmadrid.es/aplicaciones/Estimaciones.aspx?idStop=34&Estado=1&panel=6",
    "location_type": "",
    "parent_station": ""
  },
  {
    "stop_id": 35,
    "stop_code": 35,
    "stop_name": "Cuzco",
    "stop_desc": "",
    "stop_lat": 40.45985,
    "stop_lon": -3.68972,
    "zone_id": "",
    "stop_url": "http://www.emtmadrid.es/aplicaciones/Estimaciones.aspx?idStop=35&Estado=1&panel=6",
    "location_type": "",
    "parent_station": ""
  },
  {
    "stop_id": 36,
    "stop_code": 36,
    "stop_name": "Castellana - San Germán",
    "stop_desc": "",
    "stop_lat": 40.45657,
    "stop_lon": -3.69049,
    "zone_id": "",
    "stop_url": "http://www.emtmadrid.es/aplicaciones/Estimaciones.aspx?idStop=36&Estado=1&panel=6",
    "location_type": "",
    "parent_station": ""
  },
  {
    "stop_id": 37,
    "stop_code": 37,
    "stop_name": "Castellana - San Germán",
    "stop_desc": "",
    "stop_lat": 40.45572,
    "stop_lon": -3.69011,
    "zone_id": "",
    "stop_url": "http://www.emtmadrid.es/aplicaciones/Estimaciones.aspx?idStop=37&Estado=1&panel=6",
    "location_type": "",
    "parent_station": ""
  },
  {
    "stop_id": 38,
    "stop_code": 38,
    "stop_name": "Castellana - Rafael Salgado",
    "stop_desc": "",
    "stop_lat": 40.45455,
    "stop_lon": -3.6907,
    "zone_id": "",
    "stop_url": "http://www.emtmadrid.es/aplicaciones/Estimaciones.aspx?idStop=38&Estado=1&panel=6",
    "location_type": "",
    "parent_station": ""
  },
  {
    "stop_id": 39,
    "stop_code": 39,
    "stop_name": "Castellana - Rafael Salgado",
    "stop_desc": "",
    "stop_lat": 40.45454,
    "stop_lon": -3.69023,
    "zone_id": "",
    "stop_url": "http://www.emtmadrid.es/aplicaciones/Estimaciones.aspx?idStop=39&Estado=1&panel=6",
    "location_type": "",
    "parent_station": ""
  },
  {
    "stop_id": 40,
    "stop_code": 40,
    "stop_name": "San Romualdo - Julián Camarillo",
    "stop_desc": "",
    "stop_lat": 40.43756,
    "stop_lon": -3.62094,
    "zone_id": "",
    "stop_url": "http://www.emtmadrid.es/aplicaciones/Estimaciones.aspx?idStop=40&Estado=1&panel=6",
    "location_type": "",
    "parent_station": ""
  },
  {
    "stop_id": 41,
    "stop_code": 41,
    "stop_name": "Lima - Santiago Bernabéu",
    "stop_desc": "",
    "stop_lat": 40.45146,
    "stop_lon": -3.69106,
    "zone_id": "",
    "stop_url": "http://www.emtmadrid.es/aplicaciones/Estimaciones.aspx?idStop=41&Estado=1&panel=6",
    "location_type": "",
    "parent_station": ""
  },
  {
    "stop_id": 42,
    "stop_code": 42,
    "stop_name": "Lima - Santiago Bernabéu",
    "stop_desc": "",
    "stop_lat": 40.45148,
    "stop_lon": -3.69052,
    "zone_id": "",
    "stop_url": "http://www.emtmadrid.es/aplicaciones/Estimaciones.aspx?idStop=42&Estado=1&panel=6",
    "location_type": "",
    "parent_station": ""
  },
  {
    "stop_id": 44,
    "stop_code": 44,
    "stop_name": "Santiago Bernabéu",
    "stop_desc": "",
    "stop_lat": 40.45308,
    "stop_lon": -3.69037,
    "zone_id": "",
    "stop_url": "http://www.emtmadrid.es/aplicaciones/Estimaciones.aspx?idStop=44&Estado=1&panel=6",
    "location_type": "",
    "parent_station": ""
  },
  {
    "stop_id": 45,
    "stop_code": 45,
    "stop_name": "Plaza Lima",
    "stop_desc": "",
    "stop_lat": 40.45162,
    "stop_lon": -3.6905,
    "zone_id": "",
    "stop_url": "http://www.emtmadrid.es/aplicaciones/Estimaciones.aspx?idStop=45&Estado=1&panel=6",
    "location_type": "",
    "parent_station": ""
  },
  {
    "stop_id": 47,
    "stop_code": 47,
    "stop_name": "Azca",
    "stop_desc": "",
    "stop_lat": 40.44934,
    "stop_lon": -3.69074,
    "zone_id": "",
    "stop_url": "http://www.emtmadrid.es/aplicaciones/Estimaciones.aspx?idStop=47&Estado=1&panel=6",
    "location_type": "",
    "parent_station": ""
  },
  {
    "stop_id": 48,
    "stop_code": 48,
    "stop_name": "Nuevos Ministerios - Centro Comercial",
    "stop_desc": "",
    "stop_lat": 40.44656,
    "stop_lon": -3.6915,
    "zone_id": "",
    "stop_url": "http://www.emtmadrid.es/aplicaciones/Estimaciones.aspx?idStop=48&Estado=1&panel=6",
    "location_type": "",
    "parent_station": ""
  },
  {
    "stop_id": 49,
    "stop_code": 49,
    "stop_name": "Nuevos Ministerios - Cercanías",
    "stop_desc": "",
    "stop_lat": 40.44536,
    "stop_lon": -3.6917,
    "zone_id": "",
    "stop_url": "http://www.emtmadrid.es/aplicaciones/Estimaciones.aspx?idStop=49&Estado=1&panel=6",
    "location_type": "",
    "parent_station": ""
  },
  {
    "stop_id": 50,
    "stop_code": 50,
    "stop_name": "Nuevos Ministerios - Centro Comercial",
    "stop_desc": "",
    "stop_lat": 40.44682,
    "stop_lon": -3.69101,
    "zone_id": "",
    "stop_url": "http://www.emtmadrid.es/aplicaciones/Estimaciones.aspx?idStop=50&Estado=1&panel=6",
    "location_type": "",
    "parent_station": ""
  },
  {
    "stop_id": 51,
    "stop_code": 51,
    "stop_name": "Nuevos Ministerios - Castellana",
    "stop_desc": "",
    "stop_lat": 40.44405,
    "stop_lon": -3.69182,
    "zone_id": "",
    "stop_url": "http://www.emtmadrid.es/aplicaciones/Estimaciones.aspx?idStop=51&Estado=1&panel=6",
    "location_type": "",
    "parent_station": ""
  },
  {
    "stop_id": 52,
    "stop_code": 52,
    "stop_name": "Nuevos Ministerios - Castellana",
    "stop_desc": "",
    "stop_lat": 40.44373,
    "stop_lon": -3.69115,
    "zone_id": "",
    "stop_url": "http://www.emtmadrid.es/aplicaciones/Estimaciones.aspx?idStop=52&Estado=1&panel=6",
    "location_type": "",
    "parent_station": ""
  },
  {
    "stop_id": 53,
    "stop_code": 53,
    "stop_name": "Museo Ciencias Naturales",
    "stop_desc": "",
    "stop_lat": 40.44098,
    "stop_lon": -3.69219,
    "zone_id": "",
    "stop_url": "http://www.emtmadrid.es/aplicaciones/Estimaciones.aspx?idStop=53&Estado=1&panel=6",
    "location_type": "",
    "parent_station": ""
  },
  {
    "stop_id": 54,
    "stop_code": 54,
    "stop_name": "Museo Ciencias Naturales",
    "stop_desc": "",
    "stop_lat": 40.44112,
    "stop_lon": -3.69137,
    "zone_id": "",
    "stop_url": "http://www.emtmadrid.es/aplicaciones/Estimaciones.aspx?idStop=54&Estado=1&panel=6",
    "location_type": "",
    "parent_station": ""
  },
  {
    "stop_id": 56,
    "stop_code": 56,
    "stop_name": "Gregorio Marañón",
    "stop_desc": "",
    "stop_lat": 40.43835,
    "stop_lon": -3.6904,
    "zone_id": "",
    "stop_url": "http://www.emtmadrid.es/aplicaciones/Estimaciones.aspx?idStop=56&Estado=1&panel=6",
    "location_type": "",
    "parent_station": ""
  },
  {
    "stop_id": 57,
    "stop_code": 57,
    "stop_name": "Emilio Castelar",
    "stop_desc": "",
    "stop_lat": 40.43497,
    "stop_lon": -3.68926,
    "zone_id": "",
    "stop_url": "http://www.emtmadrid.es/aplicaciones/Estimaciones.aspx?idStop=57&Estado=1&panel=6",
    "location_type": "",
    "parent_station": ""
  },
  {
    "stop_id": 58,
    "stop_code": 58,
    "stop_name": "Emilio Castelar",
    "stop_desc": "",
    "stop_lat": 40.43575,
    "stop_lon": -3.68869,
    "zone_id": "",
    "stop_url": "http://www.emtmadrid.es/aplicaciones/Estimaciones.aspx?idStop=58&Estado=1&panel=6",
    "location_type": "",
    "parent_station": ""
  },
  {
    "stop_id": 59,
    "stop_code": 59,
    "stop_name": "Castellana - Rubén Darío",
    "stop_desc": "",
    "stop_lat": 40.43297,
    "stop_lon": -3.68881,
    "zone_id": "",
    "stop_url": "http://www.emtmadrid.es/aplicaciones/Estimaciones.aspx?idStop=59&Estado=1&panel=6",
    "location_type": "",
    "parent_station": ""
  },
  {
    "stop_id": 60,
    "stop_code": 60,
    "stop_name": "Castellana - Rubén Darío",
    "stop_desc": "",
    "stop_lat": 40.4332,
    "stop_lon": -3.68808,
    "zone_id": "",
    "stop_url": "http://www.emtmadrid.es/aplicaciones/Estimaciones.aspx?idStop=60&Estado=1&panel=6",
    "location_type": "",
    "parent_station": ""
  },
  {
    "stop_id": 61,
    "stop_code": 61,
    "stop_name": "Castellana - Ministerio Interior",
    "stop_desc": "",
    "stop_lat": 40.42913,
    "stop_lon": -3.6898,
    "zone_id": "",
    "stop_url": "http://www.emtmadrid.es/aplicaciones/Estimaciones.aspx?idStop=61&Estado=1&panel=6",
    "location_type": "",
    "parent_station": ""
  },
  {
    "stop_id": 62,
    "stop_code": 62,
    "stop_name": "Castellana - Ministerio Interior",
    "stop_desc": "",
    "stop_lat": 40.42921,
    "stop_lon": -3.68907,
    "zone_id": "",
    "stop_url": "http://www.emtmadrid.es/aplicaciones/Estimaciones.aspx?idStop=62&Estado=1&panel=6",
    "location_type": "",
    "parent_station": ""
  },
  {
    "stop_id": 63,
    "stop_code": 63,
    "stop_name": "Colón",
    "stop_desc": "",
    "stop_lat": 40.42586,
    "stop_lon": -3.69063,
    "zone_id": "",
    "stop_url": "http://www.emtmadrid.es/aplicaciones/Estimaciones.aspx?idStop=63&Estado=1&panel=6",
    "location_type": "",
    "parent_station": ""
  },
  {
    "stop_id": 65,
    "stop_code": 65,
    "stop_name": "Biblioteca Nacional",
    "stop_desc": "",
    "stop_lat": 40.42384,
    "stop_lon": -3.69052,
    "zone_id": "",
    "stop_url": "http://www.emtmadrid.es/aplicaciones/Estimaciones.aspx?idStop=65&Estado=1&panel=6",
    "location_type": "",
    "parent_station": ""
  },
  {
    "stop_id": 66,
    "stop_code": 66,
    "stop_name": "Colón",
    "stop_desc": "",
    "stop_lat": 40.42608,
    "stop_lon": -3.68987,
    "zone_id": "",
    "stop_url": "http://www.emtmadrid.es/aplicaciones/Estimaciones.aspx?idStop=66&Estado=1&panel=6",
    "location_type": "",
    "parent_station": ""
  },
  {
    "stop_id": 68,
    "stop_code": 68,
    "stop_name": "Recoletos",
    "stop_desc": "",
    "stop_lat": 40.42285,
    "stop_lon": -3.69152,
    "zone_id": "",
    "stop_url": "http://www.emtmadrid.es/aplicaciones/Estimaciones.aspx?idStop=68&Estado=1&panel=6",
    "location_type": "",
    "parent_station": ""
  },
  {
    "stop_id": 69,
    "stop_code": 69,
    "stop_name": "Cibeles",
    "stop_desc": "",
    "stop_lat": 40.41975,
    "stop_lon": -3.69353,
    "zone_id": "",
    "stop_url": "http://www.emtmadrid.es/aplicaciones/Estimaciones.aspx?idStop=69&Estado=1&panel=6",
    "location_type": "",
    "parent_station": ""
  },
  {
    "stop_id": 70,
    "stop_code": 70,
    "stop_name": "Cibeles",
    "stop_desc": "",
    "stop_lat": 40.41911,
    "stop_lon": -3.69337,
    "zone_id": "",
    "stop_url": "http://www.emtmadrid.es/aplicaciones/Estimaciones.aspx?idStop=70&Estado=1&panel=6",
    "location_type": "",
    "parent_station": ""
  },
  {
    "stop_id": 71,
    "stop_code": 71,
    "stop_name": "Cibeles",
    "stop_desc": "",
    "stop_lat": 40.41876,
    "stop_lon": -3.69263,
    "zone_id": "",
    "stop_url": "http://www.emtmadrid.es/aplicaciones/Estimaciones.aspx?idStop=71&Estado=1&panel=6",
    "location_type": "",
    "parent_station": ""
  },
  {
    "stop_id": 72,
    "stop_code": 72,
    "stop_name": "Cibeles - Casa De América",
    "stop_desc": "",
    "stop_lat": 40.42031,
    "stop_lon": -3.69214,
    "zone_id": "",
    "stop_url": "http://www.emtmadrid.es/aplicaciones/Estimaciones.aspx?idStop=72&Estado=1&panel=6",
    "location_type": "",
    "parent_station": ""
  },
  {
    "stop_id": 73,
    "stop_code": 73,
    "stop_name": "Cibeles",
    "stop_desc": "",
    "stop_lat": 40.42019,
    "stop_lon": -3.69281,
    "zone_id": "",
    "stop_url": "http://www.emtmadrid.es/aplicaciones/Estimaciones.aspx?idStop=73&Estado=1&panel=6",
    "location_type": "",
    "parent_station": ""
  },
  {
    "stop_id": 74,
    "stop_code": 74,
    "stop_name": "Cibeles",
    "stop_desc": "",
    "stop_lat": 40.41903,
    "stop_lon": -3.69355,
    "zone_id": "",
    "stop_url": "http://www.emtmadrid.es/aplicaciones/Estimaciones.aspx?idStop=74&Estado=1&panel=6",
    "location_type": "",
    "parent_station": ""
  },
  {
    "stop_id": 76,
    "stop_code": 76,
    "stop_name": "Banco De España",
    "stop_desc": "",
    "stop_lat": 40.41778,
    "stop_lon": -3.69424,
    "zone_id": "",
    "stop_url": "http://www.emtmadrid.es/aplicaciones/Estimaciones.aspx?idStop=76&Estado=1&panel=6",
    "location_type": "",
    "parent_station": ""
  },
  {
    "stop_id": 77,
    "stop_code": 77,
    "stop_name": "Neptuno",
    "stop_desc": "",
    "stop_lat": 40.41508,
    "stop_lon": -3.69466,
    "zone_id": "",
    "stop_url": "http://www.emtmadrid.es/aplicaciones/Estimaciones.aspx?idStop=77&Estado=1&panel=6",
    "location_type": "",
    "parent_station": ""
  },
  {
    "stop_id": 78,
    "stop_code": 78,
    "stop_name": "Neptuno",
    "stop_desc": "",
    "stop_lat": 40.4156,
    "stop_lon": -3.69327,
    "zone_id": "",
    "stop_url": "http://www.emtmadrid.es/aplicaciones/Estimaciones.aspx?idStop=78&Estado=1&panel=6",
    "location_type": "",
    "parent_station": ""
  },
  {
    "stop_id": 79,
    "stop_code": 79,
    "stop_name": "Museo Del Prado - Jardín Botánico",
    "stop_desc": "",
    "stop_lat": 40.41232,
    "stop_lon": -3.69343,
    "zone_id": "",
    "stop_url": "http://www.emtmadrid.es/aplicaciones/Estimaciones.aspx?idStop=79&Estado=1&panel=6",
    "location_type": "",
    "parent_station": ""
  },
  {
    "stop_id": 80,
    "stop_code": 80,
    "stop_name": "Metro Puerta De Toledo",
    "stop_desc": "",
    "stop_lat": 40.40715,
    "stop_lon": -3.71127,
    "zone_id": "",
    "stop_url": "http://www.emtmadrid.es/aplicaciones/Estimaciones.aspx?idStop=80&Estado=1&panel=6",
    "location_type": "",
    "parent_station": ""
  },
  {
    "stop_id": 81,
    "stop_code": 81,
    "stop_name": "Prado - Atocha",
    "stop_desc": "",
    "stop_lat": 40.40988,
    "stop_lon": -3.69263,
    "zone_id": "",
    "stop_url": "http://www.emtmadrid.es/aplicaciones/Estimaciones.aspx?idStop=81&Estado=1&panel=6",
    "location_type": "",
    "parent_station": ""
  },
  {
    "stop_id": 82,
    "stop_code": 82,
    "stop_name": "Prado - Atocha",
    "stop_desc": "",
    "stop_lat": 40.41002,
    "stop_lon": -3.69218,
    "zone_id": "",
    "stop_url": "http://www.emtmadrid.es/aplicaciones/Estimaciones.aspx?idStop=82&Estado=1&panel=6",
    "location_type": "",
    "parent_station": ""
  },
  {
    "stop_id": 83,
    "stop_code": 83,
    "stop_name": "Museo Reina Sofía",
    "stop_desc": "",
    "stop_lat": 40.40773,
    "stop_lon": -3.69359,
    "zone_id": "",
    "stop_url": "http://www.emtmadrid.es/aplicaciones/Estimaciones.aspx?idStop=83&Estado=1&panel=6",
    "location_type": "",
    "parent_station": ""
  },
  {
    "stop_id": 84,
    "stop_code": 84,
    "stop_name": "Teatro Circo Price",
    "stop_desc": "",
    "stop_lat": 40.40625,
    "stop_lon": -3.69877,
    "zone_id": "",
    "stop_url": "http://www.emtmadrid.es/aplicaciones/Estimaciones.aspx?idStop=84&Estado=1&panel=6",
    "location_type": "",
    "parent_station": ""
  },
  {
    "stop_id": 85,
    "stop_code": 85,
    "stop_name": "Teatro Circo Price",
    "stop_desc": "",
    "stop_lat": 40.40594,
    "stop_lon": -3.69888,
    "zone_id": "",
    "stop_url": "http://www.emtmadrid.es/aplicaciones/Estimaciones.aspx?idStop=85&Estado=1&panel=6",
    "location_type": "",
    "parent_station": ""
  },
  {
    "stop_id": 86,
    "stop_code": 86,
    "stop_name": "Embajadores",
    "stop_desc": "",
    "stop_lat": 40.40539,
    "stop_lon": -3.70242,
    "zone_id": "",
    "stop_url": "http://www.emtmadrid.es/aplicaciones/Estimaciones.aspx?idStop=86&Estado=1&panel=6",
    "location_type": "",
    "parent_station": ""
  },
  {
    "stop_id": 87,
    "stop_code": 87,
    "stop_name": "José Antonio Armona",
    "stop_desc": "",
    "stop_lat": 40.40443,
    "stop_lon": -3.69674,
    "zone_id": "",
    "stop_url": "http://www.emtmadrid.es/aplicaciones/Estimaciones.aspx?idStop=87&Estado=1&panel=6",
    "location_type": "",
    "parent_station": ""
  },
  {
    "stop_id": 88,
    "stop_code": 88,
    "stop_name": "Calle De Las Delicias",
    "stop_desc": "",
    "stop_lat": 40.40415,
    "stop_lon": -3.69393,
    "zone_id": "",
    "stop_url": "http://www.emtmadrid.es/aplicaciones/Estimaciones.aspx?idStop=88&Estado=1&panel=6",
    "location_type": "",
    "parent_station": ""
  },
  {
    "stop_id": 89,
    "stop_code": 89,
    "stop_name": "Delicias - Atocha",
    "stop_desc": "",
    "stop_lat": 40.40661,
    "stop_lon": -3.69316,
    "zone_id": "",
    "stop_url": "http://www.emtmadrid.es/aplicaciones/Estimaciones.aspx?idStop=89&Estado=1&panel=6",
    "location_type": "",
    "parent_station": ""
  },
  {
    "stop_id": 90,
    "stop_code": 90,
    "stop_name": "Círculo De Bellas Artes",
    "stop_desc": "",
    "stop_lat": 40.41862,
    "stop_lon": -3.69608,
    "zone_id": "",
    "stop_url": "http://www.emtmadrid.es/aplicaciones/Estimaciones.aspx?idStop=90&Estado=1&panel=6",
    "location_type": "",
    "parent_station": ""
  },
  {
    "stop_id": 92,
    "stop_code": 92,
    "stop_name": "Méndez Álvaro - Estación Sur",
    "stop_desc": "",
    "stop_lat": 40.39374,
    "stop_lon": -3.67788,
    "zone_id": "",
    "stop_url": "http://www.emtmadrid.es/aplicaciones/Estimaciones.aspx?idStop=92&Estado=1&panel=6",
    "location_type": "",
    "parent_station": ""
  },
  {
    "stop_id": 93,
    "stop_code": 93,
    "stop_name": "La Vaguada",
    "stop_desc": "",
    "stop_lat": 40.47906,
    "stop_lon": -3.70676,
    "zone_id": "",
    "stop_url": "http://www.emtmadrid.es/aplicaciones/Estimaciones.aspx?idStop=93&Estado=1&panel=6",
    "location_type": "",
    "parent_station": ""
  },
  {
    "stop_id": 97,
    "stop_code": 97,
    "stop_name": "Padre Damián - Rafael Salgado",
    "stop_desc": "",
    "stop_lat": 40.45476,
    "stop_lon": -3.68724,
    "zone_id": "",
    "stop_url": "http://www.emtmadrid.es/aplicaciones/Estimaciones.aspx?idStop=97&Estado=1&panel=6",
    "location_type": "",
    "parent_station": ""
  },
  {
    "stop_id": 98,
    "stop_code": 98,
    "stop_name": "Padre Damián - Rafael Salgado",
    "stop_desc": "",
    "stop_lat": 40.45477,
    "stop_lon": -3.68698,
    "zone_id": "",
    "stop_url": "http://www.emtmadrid.es/aplicaciones/Estimaciones.aspx?idStop=98&Estado=1&panel=6",
    "location_type": "",
    "parent_station": ""
  },
  {
    "stop_id": 99,
    "stop_code": 99,
    "stop_name": "Padre Damián - Lázaro Galdiano",
    "stop_desc": "",
    "stop_lat": 40.45757,
    "stop_lon": -3.68583,
    "zone_id": "",
    "stop_url": "http://www.emtmadrid.es/aplicaciones/Estimaciones.aspx?idStop=99&Estado=1&panel=6",
    "location_type": "",
    "parent_station": ""
  },
  {
    "stop_id": 100,
    "stop_code": 100,
    "stop_name": "Padre Damián - Lázaro Galdiano",
    "stop_desc": "",
    "stop_lat": 40.45742,
    "stop_lon": -3.68557,
    "zone_id": "",
    "stop_url": "http://www.emtmadrid.es/aplicaciones/Estimaciones.aspx?idStop=100&Estado=1&panel=6",
    "location_type": "",
    "parent_station": ""
  },
  {
    "stop_id": 101,
    "stop_code": 101,
    "stop_name": "Alberto Alcocer - Padre Damián",
    "stop_desc": "",
    "stop_lat": 40.4595,
    "stop_lon": -3.68564,
    "zone_id": "",
    "stop_url": "http://www.emtmadrid.es/aplicaciones/Estimaciones.aspx?idStop=101&Estado=1&panel=6",
    "location_type": "",
    "parent_station": ""
  },
  {
    "stop_id": 102,
    "stop_code": 102,
    "stop_name": "Alberto Alcocer - Padre Damián",
    "stop_desc": "",
    "stop_lat": 40.45913,
    "stop_lon": -3.68539,
    "zone_id": "",
    "stop_url": "http://www.emtmadrid.es/aplicaciones/Estimaciones.aspx?idStop=102&Estado=1&panel=6",
    "location_type": "",
    "parent_station": ""
  },
  {
    "stop_id": 103,
    "stop_code": 103,
    "stop_name": "Padre Damián - Pedro Muguruza",
    "stop_desc": "",
    "stop_lat": 40.46186,
    "stop_lon": -3.68539,
    "zone_id": "",
    "stop_url": "http://www.emtmadrid.es/aplicaciones/Estimaciones.aspx?idStop=103&Estado=1&panel=6",
    "location_type": "",
    "parent_station": ""
  },
  {
    "stop_id": 104,
    "stop_code": 104,
    "stop_name": "Padre Damián - Pedro Muguruza",
    "stop_desc": "",
    "stop_lat": 40.46154,
    "stop_lon": -3.68516,
    "zone_id": "",
    "stop_url": "http://www.emtmadrid.es/aplicaciones/Estimaciones.aspx?idStop=104&Estado=1&panel=6",
    "location_type": "",
    "parent_station": ""
  },
  {
    "stop_id": 105,
    "stop_code": 105,
    "stop_name": "Madre Molas",
    "stop_desc": "",
    "stop_lat": 40.46267,
    "stop_lon": -3.68456,
    "zone_id": "",
    "stop_url": "http://www.emtmadrid.es/aplicaciones/Estimaciones.aspx?idStop=105&Estado=1&panel=6",
    "location_type": "",
    "parent_station": ""
  },
  {
    "stop_id": 106,
    "stop_code": 106,
    "stop_name": "Madre Molas",
    "stop_desc": "",
    "stop_lat": 40.46232,
    "stop_lon": -3.6845,
    "zone_id": "",
    "stop_url": "http://www.emtmadrid.es/aplicaciones/Estimaciones.aspx?idStop=106&Estado=1&panel=6",
    "location_type": "",
    "parent_station": ""
  },
  {
    "stop_id": 107,
    "stop_code": 107,
    "stop_name": "Fray Bernardino Sahagún",
    "stop_desc": "",
    "stop_lat": 40.46122,
    "stop_lon": -3.68226,
    "zone_id": "",
    "stop_url": "http://www.emtmadrid.es/aplicaciones/Estimaciones.aspx?idStop=107&Estado=1&panel=6",
    "location_type": "",
    "parent_station": ""
  },
  {
    "stop_id": 108,
    "stop_code": 108,
    "stop_name": "Fray Bernardino Sahagún",
    "stop_desc": "",
    "stop_lat": 40.46098,
    "stop_lon": -3.68224,
    "zone_id": "",
    "stop_url": "http://www.emtmadrid.es/aplicaciones/Estimaciones.aspx?idStop=108&Estado=1&panel=6",
    "location_type": "",
    "parent_station": ""
  },
  {
    "stop_id": 109,
    "stop_code": 109,
    "stop_name": "Alfonso XIII - Paseo De La Habana",
    "stop_desc": "",
    "stop_lat": 40.46042,
    "stop_lon": -3.68046,
    "zone_id": "",
    "stop_url": "http://www.emtmadrid.es/aplicaciones/Estimaciones.aspx?idStop=109&Estado=1&panel=6",
    "location_type": "",
    "parent_station": ""
  },
  {
    "stop_id": 110,
    "stop_code": 110,
    "stop_name": "Alfonso XIII - Paseo De La Habana",
    "stop_desc": "",
    "stop_lat": 40.46024,
    "stop_lon": -3.68041,
    "zone_id": "",
    "stop_url": "http://www.emtmadrid.es/aplicaciones/Estimaciones.aspx?idStop=110&Estado=1&panel=6",
    "location_type": "",
    "parent_station": ""
  },
  {
    "stop_id": 111,
    "stop_code": 111,
    "stop_name": "Plaza Del Perú",
    "stop_desc": "",
    "stop_lat": 40.46081,
    "stop_lon": -3.67673,
    "zone_id": "",
    "stop_url": "http://www.emtmadrid.es/aplicaciones/Estimaciones.aspx?idStop=111&Estado=1&panel=6",
    "location_type": "",
    "parent_station": ""
  },
  {
    "stop_id": 112,
    "stop_code": 112,
    "stop_name": "Plaza Del Perú",
    "stop_desc": "",
    "stop_lat": 40.46087,
    "stop_lon": -3.67636,
    "zone_id": "",
    "stop_url": "http://www.emtmadrid.es/aplicaciones/Estimaciones.aspx?idStop=112&Estado=1&panel=6",
    "location_type": "",
    "parent_station": ""
  },
  {
    "stop_id": 113,
    "stop_code": 113,
    "stop_name": "Plaza Del Perú",
    "stop_desc": "",
    "stop_lat": 40.46017,
    "stop_lon": -3.67693,
    "zone_id": "",
    "stop_url": "http://www.emtmadrid.es/aplicaciones/Estimaciones.aspx?idStop=113&Estado=1&panel=6",
    "location_type": "",
    "parent_station": ""
  },
  {
    "stop_id": 114,
    "stop_code": 114,
    "stop_name": "Pío XII",
    "stop_desc": "",
    "stop_lat": 40.46255,
    "stop_lon": -3.67631,
    "zone_id": "",
    "stop_url": "http://www.emtmadrid.es/aplicaciones/Estimaciones.aspx?idStop=114&Estado=1&panel=6",
    "location_type": "",
    "parent_station": ""
  },
  {
    "stop_id": 115,
    "stop_code": 115,
    "stop_name": "Pío XII",
    "stop_desc": "",
    "stop_lat": 40.4625,
    "stop_lon": -3.67603,
    "zone_id": "",
    "stop_url": "http://www.emtmadrid.es/aplicaciones/Estimaciones.aspx?idStop=115&Estado=1&panel=6",
    "location_type": "",
    "parent_station": ""
  },
  {
    "stop_id": 116,
    "stop_code": 116,
    "stop_name": "Pío XII - Comandante Franco",
    "stop_desc": "",
    "stop_lat": 40.46516,
    "stop_lon": -3.67575,
    "zone_id": "",
    "stop_url": "http://www.emtmadrid.es/aplicaciones/Estimaciones.aspx?idStop=116&Estado=1&panel=6",
    "location_type": "",
    "parent_station": ""
  },
  {
    "stop_id": 117,
    "stop_code": 117,
    "stop_name": "Pío XII - Comandante Franco",
    "stop_desc": "",
    "stop_lat": 40.46552,
    "stop_lon": -3.67538,
    "zone_id": "",
    "stop_url": "http://www.emtmadrid.es/aplicaciones/Estimaciones.aspx?idStop=117&Estado=1&panel=6",
    "location_type": "",
    "parent_station": ""
  },
  {
    "stop_id": 118,
    "stop_code": 118,
    "stop_name": "Nunciatura",
    "stop_desc": "",
    "stop_lat": 40.46862,
    "stop_lon": -3.67375,
    "zone_id": "",
    "stop_url": "http://www.emtmadrid.es/aplicaciones/Estimaciones.aspx?idStop=118&Estado=1&panel=6",
    "location_type": "",
    "parent_station": ""
  },
  {
    "stop_id": 119,
    "stop_code": 119,
    "stop_name": "Nunciatura",
    "stop_desc": "",
    "stop_lat": 40.46829,
    "stop_lon": -3.67362,
    "zone_id": "",
    "stop_url": "http://www.emtmadrid.es/aplicaciones/Estimaciones.aspx?idStop=119&Estado=1&panel=6",
    "location_type": "",
    "parent_station": ""
  },
  {
    "stop_id": 120,
    "stop_code": 120,
    "stop_name": "Pío XII - La Paloma",
    "stop_desc": "",
    "stop_lat": 40.47081,
    "stop_lon": -3.6734,
    "zone_id": "",
    "stop_url": "http://www.emtmadrid.es/aplicaciones/Estimaciones.aspx?idStop=120&Estado=1&panel=6",
    "location_type": "",
    "parent_station": ""
  },
  {
    "stop_id": 123,
    "stop_code": 123,
    "stop_name": "Bambú",
    "stop_desc": "",
    "stop_lat": 40.47408,
    "stop_lon": -3.67749,
    "zone_id": "",
    "stop_url": "http://www.emtmadrid.es/aplicaciones/Estimaciones.aspx?idStop=123&Estado=1&panel=6",
    "location_type": "",
    "parent_station": ""
  },
  {
    "stop_id": 124,
    "stop_code": 124,
    "stop_name": "Bambú - Yuca",
    "stop_desc": "",
    "stop_lat": 40.47683,
    "stop_lon": -3.67643,
    "zone_id": "",
    "stop_url": "http://www.emtmadrid.es/aplicaciones/Estimaciones.aspx?idStop=124&Estado=1&panel=6",
    "location_type": "",
    "parent_station": ""
  },
  {
    "stop_id": 125,
    "stop_code": 125,
    "stop_name": "Avenida De Burgos",
    "stop_desc": "",
    "stop_lat": 40.47945,
    "stop_lon": -3.67578,
    "zone_id": "",
    "stop_url": "http://www.emtmadrid.es/aplicaciones/Estimaciones.aspx?idStop=125&Estado=1&panel=6",
    "location_type": "",
    "parent_station": ""
  },
  {
    "stop_id": 126,
    "stop_code": 126,
    "stop_name": "Avenida De Burgos",
    "stop_desc": "",
    "stop_lat": 40.47919,
    "stop_lon": -3.6755,
    "zone_id": "",
    "stop_url": "http://www.emtmadrid.es/aplicaciones/Estimaciones.aspx?idStop=126&Estado=1&panel=6",
    "location_type": "",
    "parent_station": ""
  },
  {
    "stop_id": 127,
    "stop_code": 127,
    "stop_name": "San Luis - Avenida De Burgos",
    "stop_desc": "",
    "stop_lat": 40.48095,
    "stop_lon": -3.67526,
    "zone_id": "",
    "stop_url": "http://www.emtmadrid.es/aplicaciones/Estimaciones.aspx?idStop=127&Estado=1&panel=6",
    "location_type": "",
    "parent_station": ""
  },
  {
    "stop_id": 128,
    "stop_code": 128,
    "stop_name": "San Luis - Avenida De Burgos",
    "stop_desc": "",
    "stop_lat": 40.4806,
    "stop_lon": -3.67495,
    "zone_id": "",
    "stop_url": "http://www.emtmadrid.es/aplicaciones/Estimaciones.aspx?idStop=128&Estado=1&panel=6",
    "location_type": "",
    "parent_station": ""
  },
  {
    "stop_id": 129,
    "stop_code": 129,
    "stop_name": "Condado De Treviño",
    "stop_desc": "",
    "stop_lat": 40.47954,
    "stop_lon": -3.67213,
    "zone_id": "",
    "stop_url": "http://www.emtmadrid.es/aplicaciones/Estimaciones.aspx?idStop=129&Estado=1&panel=6",
    "location_type": "",
    "parent_station": ""
  },
  {
    "stop_id": 130,
    "stop_code": 130,
    "stop_name": "Condado De Treviño",
    "stop_desc": "",
    "stop_lat": 40.47975,
    "stop_lon": -3.6726,
    "zone_id": "",
    "stop_url": "http://www.emtmadrid.es/aplicaciones/Estimaciones.aspx?idStop=130&Estado=1&panel=6",
    "location_type": "",
    "parent_station": ""
  },
  {
    "stop_id": 131,
    "stop_code": 131,
    "stop_name": "Serrano Galvache",
    "stop_desc": "",
    "stop_lat": 40.47783,
    "stop_lon": -3.67084,
    "zone_id": "",
    "stop_url": "http://www.emtmadrid.es/aplicaciones/Estimaciones.aspx?idStop=131&Estado=1&panel=6",
    "location_type": "",
    "parent_station": ""
  },
  {
    "stop_id": 132,
    "stop_code": 132,
    "stop_name": "Serrano Galvache",
    "stop_desc": "",
    "stop_lat": 40.47743,
    "stop_lon": -3.67091,
    "zone_id": "",
    "stop_url": "http://www.emtmadrid.es/aplicaciones/Estimaciones.aspx?idStop=132&Estado=1&panel=6",
    "location_type": "",
    "parent_station": ""
  },
  {
    "stop_id": 133,
    "stop_code": 133,
    "stop_name": "San Luis - Arturo Soria",
    "stop_desc": "",
    "stop_lat": 40.47686,
    "stop_lon": -3.66895,
    "zone_id": "",
    "stop_url": "http://www.emtmadrid.es/aplicaciones/Estimaciones.aspx?idStop=133&Estado=1&panel=6",
    "location_type": "",
    "parent_station": ""
  },
  {
    "stop_id": 134,
    "stop_code": 134,
    "stop_name": "San Luis - Arturo Soria",
    "stop_desc": "",
    "stop_lat": 40.47679,
    "stop_lon": -3.66852,
    "zone_id": "",
    "stop_url": "http://www.emtmadrid.es/aplicaciones/Estimaciones.aspx?idStop=134&Estado=1&panel=6",
    "location_type": "",
    "parent_station": ""
  },
  {
    "stop_id": 135,
    "stop_code": 135,
    "stop_name": "Arturo Soria - Cultura",
    "stop_desc": "",
    "stop_lat": 40.47919,
    "stop_lon": -3.66851,
    "zone_id": "",
    "stop_url": "http://www.emtmadrid.es/aplicaciones/Estimaciones.aspx?idStop=135&Estado=1&panel=6",
    "location_type": "",
    "parent_station": ""
  },
  {
    "stop_id": 136,
    "stop_code": 136,
    "stop_name": "Arturo Soria - Cultura",
    "stop_desc": "",
    "stop_lat": 40.47852,
    "stop_lon": -3.66843,
    "zone_id": "",
    "stop_url": "http://www.emtmadrid.es/aplicaciones/Estimaciones.aspx?idStop=136&Estado=1&panel=6",
    "location_type": "",
    "parent_station": ""
  },
  {
    "stop_id": 137,
    "stop_code": 137,
    "stop_name": "Pinar De Chamartín",
    "stop_desc": "",
    "stop_lat": 40.48046,
    "stop_lon": -3.66725,
    "zone_id": "",
    "stop_url": "http://www.emtmadrid.es/aplicaciones/Estimaciones.aspx?idStop=137&Estado=1&panel=6",
    "location_type": "",
    "parent_station": ""
  },
  {
    "stop_id": 138,
    "stop_code": 138,
    "stop_name": "Pinar De Chamartín",
    "stop_desc": "",
    "stop_lat": 40.48011,
    "stop_lon": -3.66727,
    "zone_id": "",
    "stop_url": "http://www.emtmadrid.es/aplicaciones/Estimaciones.aspx?idStop=138&Estado=1&panel=6",
    "location_type": "",
    "parent_station": ""
  },
  {
    "stop_id": 139,
    "stop_code": 139,
    "stop_name": "Arturo Soria - M11",
    "stop_desc": "",
    "stop_lat": 40.48258,
    "stop_lon": -3.66494,
    "zone_id": "",
    "stop_url": "http://www.emtmadrid.es/aplicaciones/Estimaciones.aspx?idStop=139&Estado=1&panel=6",
    "location_type": "",
    "parent_station": ""
  },
  {
    "stop_id": 140,
    "stop_code": 140,
    "stop_name": "Arturo Soria - M11",
    "stop_desc": "",
    "stop_lat": 40.48238,
    "stop_lon": -3.66456,
    "zone_id": "",
    "stop_url": "http://www.emtmadrid.es/aplicaciones/Estimaciones.aspx?idStop=140&Estado=1&panel=6",
    "location_type": "",
    "parent_station": ""
  },
  {
    "stop_id": 145,
    "stop_code": 145,
    "stop_name": "Bambú",
    "stop_desc": "",
    "stop_lat": 40.47511,
    "stop_lon": -3.67591,
    "zone_id": "",
    "stop_url": "http://www.emtmadrid.es/aplicaciones/Estimaciones.aspx?idStop=145&Estado=1&panel=6",
    "location_type": "",
    "parent_station": ""
  },
  {
    "stop_id": 146,
    "stop_code": 146,
    "stop_name": "Pío XII - Avenida De Burgos",
    "stop_desc": "",
    "stop_lat": 40.4731,
    "stop_lon": -3.6757,
    "zone_id": "",
    "stop_url": "http://www.emtmadrid.es/aplicaciones/Estimaciones.aspx?idStop=146&Estado=1&panel=6",
    "location_type": "",
    "parent_station": ""
  },
  {
    "stop_id": 147,
    "stop_code": 147,
    "stop_name": "Manuel Becerra",
    "stop_desc": "",
    "stop_lat": 40.42859,
    "stop_lon": -3.66914,
    "zone_id": "",
    "stop_url": "http://www.emtmadrid.es/aplicaciones/Estimaciones.aspx?idStop=147&Estado=1&panel=6",
    "location_type": "",
    "parent_station": ""
  },
  {
    "stop_id": 148,
    "stop_code": 148,
    "stop_name": "Doctor Esquerdo - Goya",
    "stop_desc": "",
    "stop_lat": 40.42521,
    "stop_lon": -3.66891,
    "zone_id": "",
    "stop_url": "http://www.emtmadrid.es/aplicaciones/Estimaciones.aspx?idStop=148&Estado=1&panel=6",
    "location_type": "",
    "parent_station": ""
  },
  {
    "stop_id": 149,
    "stop_code": 149,
    "stop_name": "Doctor Esquerdo - Goya",
    "stop_desc": "",
    "stop_lat": 40.42485,
    "stop_lon": -3.66851,
    "zone_id": "",
    "stop_url": "http://www.emtmadrid.es/aplicaciones/Estimaciones.aspx?idStop=149&Estado=1&panel=6",
    "location_type": "",
    "parent_station": ""
  },
  {
    "stop_id": 150,
    "stop_code": 150,
    "stop_name": "O'donnell",
    "stop_desc": "",
    "stop_lat": 40.42198,
    "stop_lon": -3.66919,
    "zone_id": "",
    "stop_url": "http://www.emtmadrid.es/aplicaciones/Estimaciones.aspx?idStop=150&Estado=1&panel=6",
    "location_type": "",
    "parent_station": ""
  },
  {
    "stop_id": 151,
    "stop_code": 151,
    "stop_name": "O'donnell",
    "stop_desc": "",
    "stop_lat": 40.42272,
    "stop_lon": -3.66871,
    "zone_id": "",
    "stop_url": "http://www.emtmadrid.es/aplicaciones/Estimaciones.aspx?idStop=151&Estado=1&panel=6",
    "location_type": "",
    "parent_station": ""
  },
  {
    "stop_id": 152,
    "stop_code": 152,
    "stop_name": "Doctor Esquerdo - O Donnell",
    "stop_desc": "",
    "stop_lat": 40.42139,
    "stop_lon": -3.66951,
    "zone_id": "",
    "stop_url": "http://www.emtmadrid.es/aplicaciones/Estimaciones.aspx?idStop=152&Estado=1&panel=6",
    "location_type": "",
    "parent_station": ""
  },
  {
    "stop_id": 153,
    "stop_code": 153,
    "stop_name": "Metro O Donnell",
    "stop_desc": "",
    "stop_lat": 40.42114,
    "stop_lon": -3.66951,
    "zone_id": "",
    "stop_url": "http://www.emtmadrid.es/aplicaciones/Estimaciones.aspx?idStop=153&Estado=1&panel=6",
    "location_type": "",
    "parent_station": ""
  },
  {
    "stop_id": 154,
    "stop_code": 154,
    "stop_name": "O Donnell - Maiquez",
    "stop_desc": "",
    "stop_lat": 40.42156,
    "stop_lon": -3.67311,
    "zone_id": "",
    "stop_url": "http://www.emtmadrid.es/aplicaciones/Estimaciones.aspx?idStop=154&Estado=1&panel=6",
    "location_type": "",
    "parent_station": ""
  },
  {
    "stop_id": 155,
    "stop_code": 155,
    "stop_name": "O Donnell - Maiquez",
    "stop_desc": "",
    "stop_lat": 40.42129,
    "stop_lon": -3.67313,
    "zone_id": "",
    "stop_url": "http://www.emtmadrid.es/aplicaciones/Estimaciones.aspx?idStop=155&Estado=1&panel=6",
    "location_type": "",
    "parent_station": ""
  },
  {
    "stop_id": 156,
    "stop_code": 156,
    "stop_name": "O Donnell - Narváez",
    "stop_desc": "",
    "stop_lat": 40.42172,
    "stop_lon": -3.67639,
    "zone_id": "",
    "stop_url": "http://www.emtmadrid.es/aplicaciones/Estimaciones.aspx?idStop=156&Estado=1&panel=6",
    "location_type": "",
    "parent_station": ""
  },
  {
    "stop_id": 157,
    "stop_code": 157,
    "stop_name": "O Donnell - Narváez",
    "stop_desc": "",
    "stop_lat": 40.42147,
    "stop_lon": -3.67646,
    "zone_id": "",
    "stop_url": "http://www.emtmadrid.es/aplicaciones/Estimaciones.aspx?idStop=157&Estado=1&panel=6",
    "location_type": "",
    "parent_station": ""
  },
  {
    "stop_id": 158,
    "stop_code": 158,
    "stop_name": "O Donnell - Retiro",
    "stop_desc": "",
    "stop_lat": 40.42172,
    "stop_lon": -3.68041,
    "zone_id": "",
    "stop_url": "http://www.emtmadrid.es/aplicaciones/Estimaciones.aspx?idStop=158&Estado=1&panel=6",
    "location_type": "",
    "parent_station": ""
  },
  {
    "stop_id": 159,
    "stop_code": 159,
    "stop_name": "O Donnell - Retiro",
    "stop_desc": "",
    "stop_lat": 40.42144,
    "stop_lon": -3.68074,
    "zone_id": "",
    "stop_url": "http://www.emtmadrid.es/aplicaciones/Estimaciones.aspx?idStop=159&Estado=1&panel=6",
    "location_type": "",
    "parent_station": ""
  },
  {
    "stop_id": 161,
    "stop_code": 161,
    "stop_name": "Puerta De Alcalá",
    "stop_desc": "",
    "stop_lat": 40.42064,
    "stop_lon": -3.68919,
    "zone_id": "",
    "stop_url": "http://www.emtmadrid.es/aplicaciones/Estimaciones.aspx?idStop=161&Estado=1&panel=6",
    "location_type": "",
    "parent_station": ""
  },
  {
    "stop_id": 162,
    "stop_code": 162,
    "stop_name": "Puerta De Alcalá - Retiro",
    "stop_desc": "",
    "stop_lat": 40.41965,
    "stop_lon": -3.68826,
    "zone_id": "",
    "stop_url": "http://www.emtmadrid.es/aplicaciones/Estimaciones.aspx?idStop=162&Estado=1&panel=6",
    "location_type": "",
    "parent_station": ""
  },
  {
    "stop_id": 163,
    "stop_code": 163,
    "stop_name": "Puerta De Alcalá",
    "stop_desc": "",
    "stop_lat": 40.42053,
    "stop_lon": -3.68851,
    "zone_id": "",
    "stop_url": "http://www.emtmadrid.es/aplicaciones/Estimaciones.aspx?idStop=163&Estado=1&panel=6",
    "location_type": "",
    "parent_station": ""
  },
  {
    "stop_id": 164,
    "stop_code": 164,
    "stop_name": "Gran Vía - Alcalá",
    "stop_desc": "",
    "stop_lat": 40.41891,
    "stop_lon": -3.69715,
    "zone_id": "",
    "stop_url": "http://www.emtmadrid.es/aplicaciones/Estimaciones.aspx?idStop=164&Estado=1&panel=6",
    "location_type": "",
    "parent_station": ""
  },
  {
    "stop_id": 168,
    "stop_code": 168,
    "stop_name": "Santo Domingo",
    "stop_desc": "",
    "stop_lat": 40.42154,
    "stop_lon": -3.70761,
    "zone_id": "",
    "stop_url": "http://www.emtmadrid.es/aplicaciones/Estimaciones.aspx?idStop=168&Estado=1&panel=6",
    "location_type": "",
    "parent_station": ""
  },
  {
    "stop_id": 169,
    "stop_code": 169,
    "stop_name": "Santo Domingo",
    "stop_desc": "",
    "stop_lat": 40.42109,
    "stop_lon": -3.70746,
    "zone_id": "",
    "stop_url": "http://www.emtmadrid.es/aplicaciones/Estimaciones.aspx?idStop=169&Estado=1&panel=6",
    "location_type": "",
    "parent_station": ""
  },
  {
    "stop_id": 170,
    "stop_code": 170,
    "stop_name": "Gran Vía - Plaza De España",
    "stop_desc": "",
    "stop_lat": 40.42295,
    "stop_lon": -3.7097,
    "zone_id": "",
    "stop_url": "http://www.emtmadrid.es/aplicaciones/Estimaciones.aspx?idStop=170&Estado=1&panel=6",
    "location_type": "",
    "parent_station": ""
  },
  {
    "stop_id": 171,
    "stop_code": 171,
    "stop_name": "Gran Vía - Plaza De España",
    "stop_desc": "",
    "stop_lat": 40.423,
    "stop_lon": -3.71052,
    "zone_id": "",
    "stop_url": "http://www.emtmadrid.es/aplicaciones/Estimaciones.aspx?idStop=171&Estado=1&panel=6",
    "location_type": "",
    "parent_station": ""
  },
  {
    "stop_id": 172,
    "stop_code": 172,
    "stop_name": "Ventura Rodríguez",
    "stop_desc": "",
    "stop_lat": 40.42595,
    "stop_lon": -3.71266,
    "zone_id": "",
    "stop_url": "http://www.emtmadrid.es/aplicaciones/Estimaciones.aspx?idStop=172&Estado=1&panel=6",
    "location_type": "",
    "parent_station": ""
  },
  {
    "stop_id": 173,
    "stop_code": 173,
    "stop_name": "Ventura Rodríguez",
    "stop_desc": "",
    "stop_lat": 40.42602,
    "stop_lon": -3.71313,
    "zone_id": "",
    "stop_url": "http://www.emtmadrid.es/aplicaciones/Estimaciones.aspx?idStop=173&Estado=1&panel=6",
    "location_type": "",
    "parent_station": ""
  },
  {
    "stop_id": 174,
    "stop_code": 174,
    "stop_name": "Alcalá - Retiro",
    "stop_desc": "",
    "stop_lat": 40.42048,
    "stop_lon": -3.68579,
    "zone_id": "",
    "stop_url": "http://www.emtmadrid.es/aplicaciones/Estimaciones.aspx?idStop=174&Estado=1&panel=6",
    "location_type": "",
    "parent_station": ""
  },
  {
    "stop_id": 175,
    "stop_code": 175,
    "stop_name": "Mártires De Alcalá",
    "stop_desc": "",
    "stop_lat": 40.42776,
    "stop_lon": -3.71359,
    "zone_id": "",
    "stop_url": "http://www.emtmadrid.es/aplicaciones/Estimaciones.aspx?idStop=175&Estado=1&panel=6",
    "location_type": "",
    "parent_station": ""
  },
  {
    "stop_id": 176,
    "stop_code": 176,
    "stop_name": "Argüelles",
    "stop_desc": "",
    "stop_lat": 40.43049,
    "stop_lon": -3.71173,
    "zone_id": "",
    "stop_url": "http://www.emtmadrid.es/aplicaciones/Estimaciones.aspx?idStop=176&Estado=1&panel=6",
    "location_type": "",
    "parent_station": ""
  },
  {
    "stop_id": 177,
    "stop_code": 177,
    "stop_name": "Blasco De Garay - Centro Mayores",
    "stop_desc": "",
    "stop_lat": 40.43396,
    "stop_lon": -3.71147,
    "zone_id": "",
    "stop_url": "http://www.emtmadrid.es/aplicaciones/Estimaciones.aspx?idStop=177&Estado=1&panel=6",
    "location_type": "",
    "parent_station": ""
  },
  {
    "stop_id": 180,
    "stop_code": 180,
    "stop_name": "Vallehermoso - Islas Filipinas",
    "stop_desc": "",
    "stop_lat": 40.44047,
    "stop_lon": -3.70803,
    "zone_id": "",
    "stop_url": "http://www.emtmadrid.es/aplicaciones/Estimaciones.aspx?idStop=180&Estado=1&panel=6",
    "location_type": "",
    "parent_station": ""
  },
  {
    "stop_id": 181,
    "stop_code": 181,
    "stop_name": "Estadio Vallehermoso",
    "stop_desc": "",
    "stop_lat": 40.44254,
    "stop_lon": -3.70998,
    "zone_id": "",
    "stop_url": "http://www.emtmadrid.es/aplicaciones/Estimaciones.aspx?idStop=181&Estado=1&panel=6",
    "location_type": "",
    "parent_station": ""
  },
  {
    "stop_id": 182,
    "stop_code": 182,
    "stop_name": "Melquíades Álvarez",
    "stop_desc": "",
    "stop_lat": 40.44139,
    "stop_lon": -3.71238,
    "zone_id": "",
    "stop_url": "http://www.emtmadrid.es/aplicaciones/Estimaciones.aspx?idStop=182&Estado=1&panel=6",
    "location_type": "",
    "parent_station": ""
  },
  {
    "stop_id": 183,
    "stop_code": 183,
    "stop_name": "General Ampudia",
    "stop_desc": "",
    "stop_lat": 40.44238,
    "stop_lon": -3.71503,
    "zone_id": "",
    "stop_url": "http://www.emtmadrid.es/aplicaciones/Estimaciones.aspx?idStop=183&Estado=1&panel=6",
    "location_type": "",
    "parent_station": ""
  },
  {
    "stop_id": 184,
    "stop_code": 184,
    "stop_name": "Avenida Del Valle",
    "stop_desc": "",
    "stop_lat": 40.4436,
    "stop_lon": -3.71508,
    "zone_id": "",
    "stop_url": "http://www.emtmadrid.es/aplicaciones/Estimaciones.aspx?idStop=184&Estado=1&panel=6",
    "location_type": "",
    "parent_station": ""
  },
  {
    "stop_id": 185,
    "stop_code": 185,
    "stop_name": "Metro Guzmán El Bueno",
    "stop_desc": "",
    "stop_lat": 40.44581,
    "stop_lon": -3.71421,
    "zone_id": "",
    "stop_url": "http://www.emtmadrid.es/aplicaciones/Estimaciones.aspx?idStop=185&Estado=1&panel=6",
    "location_type": "",
    "parent_station": ""
  },
  {
    "stop_id": 186,
    "stop_code": 186,
    "stop_name": "Reina Victoria",
    "stop_desc": "",
    "stop_lat": 40.44587,
    "stop_lon": -3.71241,
    "zone_id": "",
    "stop_url": "http://www.emtmadrid.es/aplicaciones/Estimaciones.aspx?idStop=186&Estado=1&panel=6",
    "location_type": "",
    "parent_station": ""
  },
  {
    "stop_id": 187,
    "stop_code": 187,
    "stop_name": "Guzmán El Bueno - San Francisco De Sales",
    "stop_desc": "",
    "stop_lat": 40.44292,
    "stop_lon": -3.71265,
    "zone_id": "",
    "stop_url": "http://www.emtmadrid.es/aplicaciones/Estimaciones.aspx?idStop=187&Estado=1&panel=6",
    "location_type": "",
    "parent_station": ""
  },
  {
    "stop_id": 188,
    "stop_code": 188,
    "stop_name": "Melquíades Álvarez",
    "stop_desc": "",
    "stop_lat": 40.44159,
    "stop_lon": -3.71282,
    "zone_id": "",
    "stop_url": "http://www.emtmadrid.es/aplicaciones/Estimaciones.aspx?idStop=188&Estado=1&panel=6",
    "location_type": "",
    "parent_station": ""
  },
  {
    "stop_id": 189,
    "stop_code": 189,
    "stop_name": "Metro Islas Filipinas",
    "stop_desc": "",
    "stop_lat": 40.43876,
    "stop_lon": -3.71302,
    "zone_id": "",
    "stop_url": "http://www.emtmadrid.es/aplicaciones/Estimaciones.aspx?idStop=189&Estado=1&panel=6",
    "location_type": "",
    "parent_station": ""
  },
  {
    "stop_id": 190,
    "stop_code": 190,
    "stop_name": "Guzmán El Bueno - Fernández De Los Ríos",
    "stop_desc": "",
    "stop_lat": 40.43586,
    "stop_lon": -3.71323,
    "zone_id": "",
    "stop_url": "http://www.emtmadrid.es/aplicaciones/Estimaciones.aspx?idStop=190&Estado=1&panel=6",
    "location_type": "",
    "parent_station": ""
  },
  {
    "stop_id": 191,
    "stop_code": 191,
    "stop_name": "Guzmán El Bueno - Meléndez Valdés",
    "stop_desc": "",
    "stop_lat": 40.43356,
    "stop_lon": -3.71342,
    "zone_id": "",
    "stop_url": "http://www.emtmadrid.es/aplicaciones/Estimaciones.aspx?idStop=191&Estado=1&panel=6",
    "location_type": "",
    "parent_station": ""
  },
  {
    "stop_id": 192,
    "stop_code": 192,
    "stop_name": "Argüelles",
    "stop_desc": "",
    "stop_lat": 40.43101,
    "stop_lon": -3.71362,
    "zone_id": "",
    "stop_url": "http://www.emtmadrid.es/aplicaciones/Estimaciones.aspx?idStop=192&Estado=1&panel=6",
    "location_type": "",
    "parent_station": ""
  },
  {
    "stop_id": 193,
    "stop_code": 193,
    "stop_name": "Princesa - Rey Francisco",
    "stop_desc": "",
    "stop_lat": 40.42794,
    "stop_lon": -3.71453,
    "zone_id": "",
    "stop_url": "http://www.emtmadrid.es/aplicaciones/Estimaciones.aspx?idStop=193&Estado=1&panel=6",
    "location_type": "",
    "parent_station": ""
  },
  {
    "stop_id": 194,
    "stop_code": 194,
    "stop_name": "Menéndez Pelayo - Menorca",
    "stop_desc": "",
    "stop_lat": 40.41981,
    "stop_lon": -3.67919,
    "zone_id": "",
    "stop_url": "http://www.emtmadrid.es/aplicaciones/Estimaciones.aspx?idStop=194&Estado=1&panel=6",
    "location_type": "",
    "parent_station": ""
  },
  {
    "stop_id": 195,
    "stop_code": 195,
    "stop_name": "Menéndez Pelayo - Menorca",
    "stop_desc": "",
    "stop_lat": 40.41963,
    "stop_lon": -3.67937,
    "zone_id": "",
    "stop_url": "http://www.emtmadrid.es/aplicaciones/Estimaciones.aspx?idStop=195&Estado=1&panel=6",
    "location_type": "",
    "parent_station": ""
  },
  {
    "stop_id": 196,
    "stop_code": 196,
    "stop_name": "Menéndez Pelayo - Sainz De Baranda",
    "stop_desc": "",
    "stop_lat": 40.41692,
    "stop_lon": -3.67726,
    "zone_id": "",
    "stop_url": "http://www.emtmadrid.es/aplicaciones/Estimaciones.aspx?idStop=196&Estado=1&panel=6",
    "location_type": "",
    "parent_station": ""
  },
  {
    "stop_id": 197,
    "stop_code": 197,
    "stop_name": "Ibiza - Narváez",
    "stop_desc": "",
    "stop_lat": 40.41847,
    "stop_lon": -3.67651,
    "zone_id": "",
    "stop_url": "http://www.emtmadrid.es/aplicaciones/Estimaciones.aspx?idStop=197&Estado=1&panel=6",
    "location_type": "",
    "parent_station": ""
  },
  {
    "stop_id": 199,
    "stop_code": 199,
    "stop_name": "Ibiza - Maiquez",
    "stop_desc": "",
    "stop_lat": 40.4183,
    "stop_lon": -3.67276,
    "zone_id": "",
    "stop_url": "http://www.emtmadrid.es/aplicaciones/Estimaciones.aspx?idStop=199&Estado=1&panel=6",
    "location_type": "",
    "parent_station": ""
  },
  {
    "stop_id": 203,
    "stop_code": 203,
    "stop_name": "Mateo Inurria",
    "stop_desc": "",
    "stop_lat": 40.4669,
    "stop_lon": -3.68513,
    "zone_id": "",
    "stop_url": "http://www.emtmadrid.es/aplicaciones/Estimaciones.aspx?idStop=203&Estado=1&panel=6",
    "location_type": "",
    "parent_station": ""
  },
  {
    "stop_id": 204,
    "stop_code": 204,
    "stop_name": "Mateo Inurria",
    "stop_desc": "",
    "stop_lat": 40.46693,
    "stop_lon": -3.68559,
    "zone_id": "",
    "stop_url": "http://www.emtmadrid.es/aplicaciones/Estimaciones.aspx?idStop=204&Estado=1&panel=6",
    "location_type": "",
    "parent_station": ""
  },
  {
    "stop_id": 205,
    "stop_code": 205,
    "stop_name": "Avenida Del Recuerdo",
    "stop_desc": "",
    "stop_lat": 40.46743,
    "stop_lon": -3.68154,
    "zone_id": "",
    "stop_url": "http://www.emtmadrid.es/aplicaciones/Estimaciones.aspx?idStop=205&Estado=1&panel=6",
    "location_type": "",
    "parent_station": ""
  },
  {
    "stop_id": 206,
    "stop_code": 206,
    "stop_name": "Avenida Del Recuerdo",
    "stop_desc": "",
    "stop_lat": 40.46762,
    "stop_lon": -3.68117,
    "zone_id": "",
    "stop_url": "http://www.emtmadrid.es/aplicaciones/Estimaciones.aspx?idStop=206&Estado=1&panel=6",
    "location_type": "",
    "parent_station": ""
  },
  {
    "stop_id": 208,
    "stop_code": 208,
    "stop_name": "Nunciatura",
    "stop_desc": "",
    "stop_lat": 40.46739,
    "stop_lon": -3.67525,
    "zone_id": "",
    "stop_url": "http://www.emtmadrid.es/aplicaciones/Estimaciones.aspx?idStop=208&Estado=1&panel=6",
    "location_type": "",
    "parent_station": ""
  },
  {
    "stop_id": 209,
    "stop_code": 209,
    "stop_name": "Nunciatura",
    "stop_desc": "",
    "stop_lat": 40.46749,
    "stop_lon": -3.67517,
    "zone_id": "",
    "stop_url": "http://www.emtmadrid.es/aplicaciones/Estimaciones.aspx?idStop=209&Estado=1&panel=6",
    "location_type": "",
    "parent_station": ""
  },
  {
    "stop_id": 210,
    "stop_code": 210,
    "stop_name": "Caidos División Azul",
    "stop_desc": "",
    "stop_lat": 40.46651,
    "stop_lon": -3.67273,
    "zone_id": "",
    "stop_url": "http://www.emtmadrid.es/aplicaciones/Estimaciones.aspx?idStop=210&Estado=1&panel=6",
    "location_type": "",
    "parent_station": ""
  },
  {
    "stop_id": 211,
    "stop_code": 211,
    "stop_name": "Caidos División Azul",
    "stop_desc": "",
    "stop_lat": 40.46682,
    "stop_lon": -3.67276,
    "zone_id": "",
    "stop_url": "http://www.emtmadrid.es/aplicaciones/Estimaciones.aspx?idStop=211&Estado=1&panel=6",
    "location_type": "",
    "parent_station": ""
  },
  {
    "stop_id": 212,
    "stop_code": 212,
    "stop_name": "Arturo Soria - Añastro",
    "stop_desc": "",
    "stop_lat": 40.46652,
    "stop_lon": -3.66614,
    "zone_id": "",
    "stop_url": "http://www.emtmadrid.es/aplicaciones/Estimaciones.aspx?idStop=212&Estado=1&panel=6",
    "location_type": "",
    "parent_station": ""
  },
  {
    "stop_id": 213,
    "stop_code": 213,
    "stop_name": "Arturo Soria - Añastro",
    "stop_desc": "",
    "stop_lat": 40.46656,
    "stop_lon": -3.66579,
    "zone_id": "",
    "stop_url": "http://www.emtmadrid.es/aplicaciones/Estimaciones.aspx?idStop=213&Estado=1&panel=6",
    "location_type": "",
    "parent_station": ""
  },
  {
    "stop_id": 214,
    "stop_code": 214,
    "stop_name": "Arturo Soria - Añastro",
    "stop_desc": "",
    "stop_lat": 40.46755,
    "stop_lon": -3.66597,
    "zone_id": "",
    "stop_url": "http://www.emtmadrid.es/aplicaciones/Estimaciones.aspx?idStop=214&Estado=1&panel=6",
    "location_type": "",
    "parent_station": ""
  },
  {
    "stop_id": 216,
    "stop_code": 216,
    "stop_name": "Arturo Soria - Aleixandre",
    "stop_desc": "",
    "stop_lat": 40.46411,
    "stop_lon": -3.66504,
    "zone_id": "",
    "stop_url": "http://www.emtmadrid.es/aplicaciones/Estimaciones.aspx?idStop=216&Estado=1&panel=6",
    "location_type": "",
    "parent_station": ""
  },
  {
    "stop_id": 217,
    "stop_code": 217,
    "stop_name": "Arturo Soria - Gran Vía De Hortaleza",
    "stop_desc": "",
    "stop_lat": 40.46107,
    "stop_lon": -3.66224,
    "zone_id": "",
    "stop_url": "http://www.emtmadrid.es/aplicaciones/Estimaciones.aspx?idStop=217&Estado=1&panel=6",
    "location_type": "",
    "parent_station": ""
  },
  {
    "stop_id": 218,
    "stop_code": 218,
    "stop_name": "Arturo Soria - López De Hoyos",
    "stop_desc": "",
    "stop_lat": 40.45952,
    "stop_lon": -3.66068,
    "zone_id": "",
    "stop_url": "http://www.emtmadrid.es/aplicaciones/Estimaciones.aspx?idStop=218&Estado=1&panel=6",
    "location_type": "",
    "parent_station": ""
  },
  {
    "stop_id": 219,
    "stop_code": 219,
    "stop_name": "Arturo Soria - López De Hoyos",
    "stop_desc": "",
    "stop_lat": 40.45916,
    "stop_lon": -3.65945,
    "zone_id": "",
    "stop_url": "http://www.emtmadrid.es/aplicaciones/Estimaciones.aspx?idStop=219&Estado=1&panel=6",
    "location_type": "",
    "parent_station": ""
  },
  {
    "stop_id": 220,
    "stop_code": 220,
    "stop_name": "Metro Arturo Soria",
    "stop_desc": "",
    "stop_lat": 40.45677,
    "stop_lon": -3.65755,
    "zone_id": "",
    "stop_url": "http://www.emtmadrid.es/aplicaciones/Estimaciones.aspx?idStop=220&Estado=1&panel=6",
    "location_type": "",
    "parent_station": ""
  },
  {
    "stop_id": 221,
    "stop_code": 221,
    "stop_name": "Metro Arturo Soria",
    "stop_desc": "",
    "stop_lat": 40.4571,
    "stop_lon": -3.65743,
    "zone_id": "",
    "stop_url": "http://www.emtmadrid.es/aplicaciones/Estimaciones.aspx?idStop=221&Estado=1&panel=6",
    "location_type": "",
    "parent_station": ""
  },
  {
    "stop_id": 222,
    "stop_code": 222,
    "stop_name": "Jefatura Provincial Tráfico",
    "stop_desc": "",
    "stop_lat": 40.45449,
    "stop_lon": -3.65547,
    "zone_id": "",
    "stop_url": "http://www.emtmadrid.es/aplicaciones/Estimaciones.aspx?idStop=222&Estado=1&panel=6",
    "location_type": "",
    "parent_station": ""
  },
  {
    "stop_id": 223,
    "stop_code": 223,
    "stop_name": "Arturo Soria - Bueso Pineda",
    "stop_desc": "",
    "stop_lat": 40.45473,
    "stop_lon": -3.65536,
    "zone_id": "",
    "stop_url": "http://www.emtmadrid.es/aplicaciones/Estimaciones.aspx?idStop=223&Estado=1&panel=6",
    "location_type": "",
    "parent_station": ""
  },
  {
    "stop_id": 224,
    "stop_code": 224,
    "stop_name": "Arturo Soria - Conservatorio",
    "stop_desc": "",
    "stop_lat": 40.45194,
    "stop_lon": -3.65324,
    "zone_id": "",
    "stop_url": "http://www.emtmadrid.es/aplicaciones/Estimaciones.aspx?idStop=224&Estado=1&panel=6",
    "location_type": "",
    "parent_station": ""
  },
  {
    "stop_id": 225,
    "stop_code": 225,
    "stop_name": "Arturo Soria - Conservatorio",
    "stop_desc": "",
    "stop_lat": 40.45093,
    "stop_lon": -3.65219,
    "zone_id": "",
    "stop_url": "http://www.emtmadrid.es/aplicaciones/Estimaciones.aspx?idStop=225&Estado=1&panel=6",
    "location_type": "",
    "parent_station": ""
  },
  {
    "stop_id": 226,
    "stop_code": 226,
    "stop_name": "Hospital Universitario Vithas",
    "stop_desc": "",
    "stop_lat": 40.44975,
    "stop_lon": -3.65162,
    "zone_id": "",
    "stop_url": "http://www.emtmadrid.es/aplicaciones/Estimaciones.aspx?idStop=226&Estado=1&panel=6",
    "location_type": "",
    "parent_station": ""
  },
  {
    "stop_id": 227,
    "stop_code": 227,
    "stop_name": "Hospital Universitario Vithas",
    "stop_desc": "",
    "stop_lat": 40.44917,
    "stop_lon": -3.65064,
    "zone_id": "",
    "stop_url": "http://www.emtmadrid.es/aplicaciones/Estimaciones.aspx?idStop=227&Estado=1&panel=6",
    "location_type": "",
    "parent_station": ""
  },
  {
    "stop_id": 228,
    "stop_code": 228,
    "stop_name": "Arturo Soria - Josefa Valcárcel",
    "stop_desc": "",
    "stop_lat": 40.44678,
    "stop_lon": -3.64905,
    "zone_id": "",
    "stop_url": "http://www.emtmadrid.es/aplicaciones/Estimaciones.aspx?idStop=228&Estado=1&panel=6",
    "location_type": "",
    "parent_station": ""
  },
  {
    "stop_id": 229,
    "stop_code": 229,
    "stop_name": "Arturo Soria - Josefa Valcárcel",
    "stop_desc": "",
    "stop_lat": 40.4471,
    "stop_lon": -3.64897,
    "zone_id": "",
    "stop_url": "http://www.emtmadrid.es/aplicaciones/Estimaciones.aspx?idStop=229&Estado=1&panel=6",
    "location_type": "",
    "parent_station": ""
  },
  {
    "stop_id": 230,
    "stop_code": 230,
    "stop_name": "Arturo Soria - Juan Pérez De Zúñiga",
    "stop_desc": "",
    "stop_lat": 40.4448,
    "stop_lon": -3.64572,
    "zone_id": "",
    "stop_url": "http://www.emtmadrid.es/aplicaciones/Estimaciones.aspx?idStop=230&Estado=1&panel=6",
    "location_type": "",
    "parent_station": ""
  },
  {
    "stop_id": 231,
    "stop_code": 231,
    "stop_name": "Arturo Soria - Juan Pérez De Zúñiga",
    "stop_desc": "",
    "stop_lat": 40.44513,
    "stop_lon": -3.64564,
    "zone_id": "",
    "stop_url": "http://www.emtmadrid.es/aplicaciones/Estimaciones.aspx?idStop=231&Estado=1&panel=6",
    "location_type": "",
    "parent_station": ""
  },
  {
    "stop_id": 232,
    "stop_code": 232,
    "stop_name": "Arturo Soria - Marqués De Pico Velasco",
    "stop_desc": "",
    "stop_lat": 40.44403,
    "stop_lon": -3.64395,
    "zone_id": "",
    "stop_url": "http://www.emtmadrid.es/aplicaciones/Estimaciones.aspx?idStop=232&Estado=1&panel=6",
    "location_type": "",
    "parent_station": ""
  },
  {
    "stop_id": 233,
    "stop_code": 233,
    "stop_name": "Arturo Soria - Marqués De Pico Velasco",
    "stop_desc": "",
    "stop_lat": 40.44426,
    "stop_lon": -3.64387,
    "zone_id": "",
    "stop_url": "http://www.emtmadrid.es/aplicaciones/Estimaciones.aspx?idStop=233&Estado=1&panel=6",
    "location_type": "",
    "parent_station": ""
  },
  {
    "stop_id": 234,
    "stop_code": 234,
    "stop_name": "Arturo Soria - José Del Hierro",
    "stop_desc": "",
    "stop_lat": 40.44205,
    "stop_lon": -3.64128,
    "zone_id": "",
    "stop_url": "http://www.emtmadrid.es/aplicaciones/Estimaciones.aspx?idStop=234&Estado=1&panel=6",
    "location_type": "",
    "parent_station": ""
  },
  {
    "stop_id": 235,
    "stop_code": 235,
    "stop_name": "Arturo Soria - José Del Hierro",
    "stop_desc": "",
    "stop_lat": 40.44124,
    "stop_lon": -3.6403,
    "zone_id": "",
    "stop_url": "http://www.emtmadrid.es/aplicaciones/Estimaciones.aspx?idStop=235&Estado=1&panel=6",
    "location_type": "",
    "parent_station": ""
  },
  {
    "stop_id": 236,
    "stop_code": 236,
    "stop_name": "Ciudad Lineal",
    "stop_desc": "",
    "stop_lat": 40.43858,
    "stop_lon": -3.63881,
    "zone_id": "",
    "stop_url": "http://www.emtmadrid.es/aplicaciones/Estimaciones.aspx?idStop=236&Estado=1&panel=6",
    "location_type": "",
    "parent_station": ""
  },
  {
    "stop_id": 237,
    "stop_code": 237,
    "stop_name": "Ciudad Lineal",
    "stop_desc": "",
    "stop_lat": 40.43876,
    "stop_lon": -3.63837,
    "zone_id": "",
    "stop_url": "http://www.emtmadrid.es/aplicaciones/Estimaciones.aspx?idStop=237&Estado=1&panel=6",
    "location_type": "",
    "parent_station": ""
  },
  {
    "stop_id": 239,
    "stop_code": 239,
    "stop_name": "Ciudad Lineal",
    "stop_desc": "",
    "stop_lat": 40.43743,
    "stop_lon": -3.63741,
    "zone_id": "",
    "stop_url": "http://www.emtmadrid.es/aplicaciones/Estimaciones.aspx?idStop=239&Estado=1&panel=6",
    "location_type": "",
    "parent_station": ""
  },
  {
    "stop_id": 240,
    "stop_code": 240,
    "stop_name": "Vital Aza - Albasanz",
    "stop_desc": "",
    "stop_lat": 40.43491,
    "stop_lon": -3.63609,
    "zone_id": "",
    "stop_url": "http://www.emtmadrid.es/aplicaciones/Estimaciones.aspx?idStop=240&Estado=1&panel=6",
    "location_type": "",
    "parent_station": ""
  },
  {
    "stop_id": 241,
    "stop_code": 241,
    "stop_name": "Vital Aza - Albasanz",
    "stop_desc": "",
    "stop_lat": 40.43508,
    "stop_lon": -3.63575,
    "zone_id": "",
    "stop_url": "http://www.emtmadrid.es/aplicaciones/Estimaciones.aspx?idStop=241&Estado=1&panel=6",
    "location_type": "",
    "parent_station": ""
  },
  {
    "stop_id": 242,
    "stop_code": 242,
    "stop_name": "Ascao - Julián Camarillo",
    "stop_desc": "",
    "stop_lat": 40.43257,
    "stop_lon": -3.63447,
    "zone_id": "",
    "stop_url": "http://www.emtmadrid.es/aplicaciones/Estimaciones.aspx?idStop=242&Estado=1&panel=6",
    "location_type": "",
    "parent_station": ""
  },
  {
    "stop_id": 243,
    "stop_code": 243,
    "stop_name": "Ascao - Julián Camarillo",
    "stop_desc": "",
    "stop_lat": 40.43252,
    "stop_lon": -3.63379,
    "zone_id": "",
    "stop_url": "http://www.emtmadrid.es/aplicaciones/Estimaciones.aspx?idStop=243&Estado=1&panel=6",
    "location_type": "",
    "parent_station": ""
  },
  {
    "stop_id": 244,
    "stop_code": 244,
    "stop_name": "Metro García Noblejas",
    "stop_desc": "",
    "stop_lat": 40.42944,
    "stop_lon": -3.63213,
    "zone_id": "",
    "stop_url": "http://www.emtmadrid.es/aplicaciones/Estimaciones.aspx?idStop=244&Estado=1&panel=6",
    "location_type": "",
    "parent_station": ""
  },
  {
    "stop_id": 245,
    "stop_code": 245,
    "stop_name": "Metro García Noblejas",
    "stop_desc": "",
    "stop_lat": 40.42948,
    "stop_lon": -3.63161,
    "zone_id": "",
    "stop_url": "http://www.emtmadrid.es/aplicaciones/Estimaciones.aspx?idStop=245&Estado=1&panel=6",
    "location_type": "",
    "parent_station": ""
  },
  {
    "stop_id": 246,
    "stop_code": 246,
    "stop_name": "Castillo De Arévalo",
    "stop_desc": "",
    "stop_lat": 40.42773,
    "stop_lon": -3.63088,
    "zone_id": "",
    "stop_url": "http://www.emtmadrid.es/aplicaciones/Estimaciones.aspx?idStop=246&Estado=1&panel=6",
    "location_type": "",
    "parent_station": ""
  },
  {
    "stop_id": 247,
    "stop_code": 247,
    "stop_name": "Castillo De Arévalo",
    "stop_desc": "",
    "stop_lat": 40.42807,
    "stop_lon": -3.63073,
    "zone_id": "",
    "stop_url": "http://www.emtmadrid.es/aplicaciones/Estimaciones.aspx?idStop=247&Estado=1&panel=6",
    "location_type": "",
    "parent_station": ""
  },
  {
    "stop_id": 248,
    "stop_code": 248,
    "stop_name": "Hermanos García Noblejas - Gandhi",
    "stop_desc": "",
    "stop_lat": 40.42643,
    "stop_lon": -3.62953,
    "zone_id": "",
    "stop_url": "http://www.emtmadrid.es/aplicaciones/Estimaciones.aspx?idStop=248&Estado=1&panel=6",
    "location_type": "",
    "parent_station": ""
  },
  {
    "stop_id": 250,
    "stop_code": 250,
    "stop_name": "Hermanos García Noblejas - Centro De Salud",
    "stop_desc": "",
    "stop_lat": 40.42372,
    "stop_lon": -3.62804,
    "zone_id": "",
    "stop_url": "http://www.emtmadrid.es/aplicaciones/Estimaciones.aspx?idStop=250&Estado=1&panel=6",
    "location_type": "",
    "parent_station": ""
  },
  {
    "stop_id": 251,
    "stop_code": 251,
    "stop_name": "Hermanos García Noblejas - Arcentales",
    "stop_desc": "",
    "stop_lat": 40.42532,
    "stop_lon": -3.62869,
    "zone_id": "",
    "stop_url": "http://www.emtmadrid.es/aplicaciones/Estimaciones.aspx?idStop=251&Estado=1&panel=6",
    "location_type": "",
    "parent_station": ""
  },
  {
    "stop_id": 252,
    "stop_code": 252,
    "stop_name": "Hermanos García Noblejas - Centro De Salud",
    "stop_desc": "",
    "stop_lat": 40.42394,
    "stop_lon": -3.62755,
    "zone_id": "",
    "stop_url": "http://www.emtmadrid.es/aplicaciones/Estimaciones.aspx?idStop=252&Estado=1&panel=6",
    "location_type": "",
    "parent_station": ""
  },
  {
    "stop_id": 253,
    "stop_code": 253,
    "stop_name": "Hermanos García Noblejas - Villaescusa",
    "stop_desc": "",
    "stop_lat": 40.42064,
    "stop_lon": -3.62576,
    "zone_id": "",
    "stop_url": "http://www.emtmadrid.es/aplicaciones/Estimaciones.aspx?idStop=253&Estado=1&panel=6",
    "location_type": "",
    "parent_station": ""
  },
  {
    "stop_id": 255,
    "stop_code": 255,
    "stop_name": "Felipe II",
    "stop_desc": "",
    "stop_lat": 40.42467,
    "stop_lon": -3.67445,
    "zone_id": "",
    "stop_url": "http://www.emtmadrid.es/aplicaciones/Estimaciones.aspx?idStop=255&Estado=1&panel=6",
    "location_type": "",
    "parent_station": ""
  },
  {
    "stop_id": 256,
    "stop_code": 256,
    "stop_name": "Nicolás Salmerón - Paredes De Nava",
    "stop_desc": "",
    "stop_lat": 40.41859,
    "stop_lon": -3.62808,
    "zone_id": "",
    "stop_url": "http://www.emtmadrid.es/aplicaciones/Estimaciones.aspx?idStop=256&Estado=1&panel=6",
    "location_type": "",
    "parent_station": ""
  },
  {
    "stop_id": 257,
    "stop_code": 257,
    "stop_name": "Nicolás Salmerón - Paredes De Nava",
    "stop_desc": "",
    "stop_lat": 40.41839,
    "stop_lon": -3.62821,
    "zone_id": "",
    "stop_url": "http://www.emtmadrid.es/aplicaciones/Estimaciones.aspx?idStop=257&Estado=1&panel=6",
    "location_type": "",
    "parent_station": ""
  },
  {
    "stop_id": 258,
    "stop_code": 258,
    "stop_name": "Nicolás Salmerón - Matamorosa",
    "stop_desc": "",
    "stop_lat": 40.41961,
    "stop_lon": -3.63001,
    "zone_id": "",
    "stop_url": "http://www.emtmadrid.es/aplicaciones/Estimaciones.aspx?idStop=258&Estado=1&panel=6",
    "location_type": "",
    "parent_station": ""
  },
  {
    "stop_id": 259,
    "stop_code": 259,
    "stop_name": "Nicolás Salmerón - Matamorosa",
    "stop_desc": "",
    "stop_lat": 40.41942,
    "stop_lon": -3.6301,
    "zone_id": "",
    "stop_url": "http://www.emtmadrid.es/aplicaciones/Estimaciones.aspx?idStop=259&Estado=1&panel=6",
    "location_type": "",
    "parent_station": ""
  },
  {
    "stop_id": 260,
    "stop_code": 260,
    "stop_name": "Nicolás Salmerón - Crematorio",
    "stop_desc": "",
    "stop_lat": 40.42073,
    "stop_lon": -3.63217,
    "zone_id": "",
    "stop_url": "http://www.emtmadrid.es/aplicaciones/Estimaciones.aspx?idStop=260&Estado=1&panel=6",
    "location_type": "",
    "parent_station": ""
  },
  {
    "stop_id": 261,
    "stop_code": 261,
    "stop_name": "Nicolás Salmerón - Crematorio",
    "stop_desc": "",
    "stop_lat": 40.42059,
    "stop_lon": -3.63223,
    "zone_id": "",
    "stop_url": "http://www.emtmadrid.es/aplicaciones/Estimaciones.aspx?idStop=261&Estado=1&panel=6",
    "location_type": "",
    "parent_station": ""
  },
  {
    "stop_id": 262,
    "stop_code": 262,
    "stop_name": "Cementerio Civil",
    "stop_desc": "",
    "stop_lat": 40.42193,
    "stop_lon": -3.63432,
    "zone_id": "",
    "stop_url": "http://www.emtmadrid.es/aplicaciones/Estimaciones.aspx?idStop=262&Estado=1&panel=6",
    "location_type": "",
    "parent_station": ""
  },
  {
    "stop_id": 263,
    "stop_code": 263,
    "stop_name": "Cementerio Civil",
    "stop_desc": "",
    "stop_lat": 40.42169,
    "stop_lon": -3.63424,
    "zone_id": "",
    "stop_url": "http://www.emtmadrid.es/aplicaciones/Estimaciones.aspx?idStop=263&Estado=1&panel=6",
    "location_type": "",
    "parent_station": ""
  },
  {
    "stop_id": 264,
    "stop_code": 264,
    "stop_name": "Largo Caballero - Nicolás Salmerón",
    "stop_desc": "",
    "stop_lat": 40.42305,
    "stop_lon": -3.63526,
    "zone_id": "",
    "stop_url": "http://www.emtmadrid.es/aplicaciones/Estimaciones.aspx?idStop=264&Estado=1&panel=6",
    "location_type": "",
    "parent_station": ""
  },
  {
    "stop_id": 265,
    "stop_code": 265,
    "stop_name": "Largo Caballero - Villaescusa",
    "stop_desc": "",
    "stop_lat": 40.42319,
    "stop_lon": -3.63273,
    "zone_id": "",
    "stop_url": "http://www.emtmadrid.es/aplicaciones/Estimaciones.aspx?idStop=265&Estado=1&panel=6",
    "location_type": "",
    "parent_station": ""
  },
  {
    "stop_id": 266,
    "stop_code": 266,
    "stop_name": "Duque De Pastrana",
    "stop_desc": "",
    "stop_lat": 40.46806,
    "stop_lon": -3.67786,
    "zone_id": "",
    "stop_url": "http://www.emtmadrid.es/aplicaciones/Estimaciones.aspx?idStop=266&Estado=1&panel=6",
    "location_type": "",
    "parent_station": ""
  },
  {
    "stop_id": 268,
    "stop_code": 268,
    "stop_name": "López De Hoyos - Cartagena",
    "stop_desc": "",
    "stop_lat": 40.44315,
    "stop_lon": -3.67568,
    "zone_id": "",
    "stop_url": "http://www.emtmadrid.es/aplicaciones/Estimaciones.aspx?idStop=268&Estado=1&panel=6",
    "location_type": "",
    "parent_station": ""
  },
  {
    "stop_id": 269,
    "stop_code": 269,
    "stop_name": "Quintanavides",
    "stop_desc": "",
    "stop_lat": 40.49701,
    "stop_lon": -3.66733,
    "zone_id": "",
    "stop_url": "http://www.emtmadrid.es/aplicaciones/Estimaciones.aspx?idStop=269&Estado=1&panel=6",
    "location_type": "",
    "parent_station": ""
  },
  {
    "stop_id": 270,
    "stop_code": 270,
    "stop_name": "Quintanavides",
    "stop_desc": "",
    "stop_lat": 40.49674,
    "stop_lon": -3.66736,
    "zone_id": "",
    "stop_url": "http://www.emtmadrid.es/aplicaciones/Estimaciones.aspx?idStop=270&Estado=1&panel=6",
    "location_type": "",
    "parent_station": ""
  },
  {
    "stop_id": 271,
    "stop_code": 271,
    "stop_name": "Foresta",
    "stop_desc": "",
    "stop_lat": 40.49758,
    "stop_lon": -3.66965,
    "zone_id": "",
    "stop_url": "http://www.emtmadrid.es/aplicaciones/Estimaciones.aspx?idStop=271&Estado=1&panel=6",
    "location_type": "",
    "parent_station": ""
  },
  {
    "stop_id": 272,
    "stop_code": 272,
    "stop_name": "Quintanadueñas",
    "stop_desc": "",
    "stop_lat": 40.49879,
    "stop_lon": -3.67002,
    "zone_id": "",
    "stop_url": "http://www.emtmadrid.es/aplicaciones/Estimaciones.aspx?idStop=272&Estado=1&panel=6",
    "location_type": "",
    "parent_station": ""
  },
  {
    "stop_id": 273,
    "stop_code": 273,
    "stop_name": "Prosperidad",
    "stop_desc": "",
    "stop_lat": 40.44376,
    "stop_lon": -3.6749,
    "zone_id": "",
    "stop_url": "http://www.emtmadrid.es/aplicaciones/Estimaciones.aspx?idStop=273&Estado=1&panel=6",
    "location_type": "",
    "parent_station": ""
  },
  {
    "stop_id": 276,
    "stop_code": 276,
    "stop_name": "Avenida De Badajoz",
    "stop_desc": "",
    "stop_lat": 40.44221,
    "stop_lon": -3.65435,
    "zone_id": "",
    "stop_url": "http://www.emtmadrid.es/aplicaciones/Estimaciones.aspx?idStop=276&Estado=1&panel=6",
    "location_type": "",
    "parent_station": ""
  },
  {
    "stop_id": 278,
    "stop_code": 278,
    "stop_name": "Chueca",
    "stop_desc": "",
    "stop_lat": 40.42357,
    "stop_lon": -3.6987,
    "zone_id": "",
    "stop_url": "http://www.emtmadrid.es/aplicaciones/Estimaciones.aspx?idStop=278&Estado=1&panel=6",
    "location_type": "",
    "parent_station": ""
  },
  {
    "stop_id": 280,
    "stop_code": 280,
    "stop_name": "Sagasta",
    "stop_desc": "",
    "stop_lat": 40.42885,
    "stop_lon": -3.69938,
    "zone_id": "",
    "stop_url": "http://www.emtmadrid.es/aplicaciones/Estimaciones.aspx?idStop=280&Estado=1&panel=6",
    "location_type": "",
    "parent_station": ""
  },
  {
    "stop_id": 281,
    "stop_code": 281,
    "stop_name": "Sagasta",
    "stop_desc": "",
    "stop_lat": 40.42872,
    "stop_lon": -3.69961,
    "zone_id": "",
    "stop_url": "http://www.emtmadrid.es/aplicaciones/Estimaciones.aspx?idStop=281&Estado=1&panel=6",
    "location_type": "",
    "parent_station": ""
  },
  {
    "stop_id": 282,
    "stop_code": 282,
    "stop_name": "Francisco De Rojas",
    "stop_desc": "",
    "stop_lat": 40.43022,
    "stop_lon": -3.70006,
    "zone_id": "",
    "stop_url": "http://www.emtmadrid.es/aplicaciones/Estimaciones.aspx?idStop=282&Estado=1&panel=6",
    "location_type": "",
    "parent_station": ""
  },
  {
    "stop_id": 283,
    "stop_code": 283,
    "stop_name": "Gran Vía - Plaza De España",
    "stop_desc": "",
    "stop_lat": 40.42336,
    "stop_lon": -3.71049,
    "zone_id": "",
    "stop_url": "http://www.emtmadrid.es/aplicaciones/Estimaciones.aspx?idStop=283&Estado=1&panel=6",
    "location_type": "",
    "parent_station": ""
  },
  {
    "stop_id": 284,
    "stop_code": 284,
    "stop_name": "Plaza Chamberí",
    "stop_desc": "",
    "stop_lat": 40.43208,
    "stop_lon": -3.69815,
    "zone_id": "",
    "stop_url": "http://www.emtmadrid.es/aplicaciones/Estimaciones.aspx?idStop=284&Estado=1&panel=6",
    "location_type": "",
    "parent_station": ""
  },
  {
    "stop_id": 285,
    "stop_code": 285,
    "stop_name": "Luchana - Plaza Chamberí",
    "stop_desc": "",
    "stop_lat": 40.432,
    "stop_lon": -3.69868,
    "zone_id": "",
    "stop_url": "http://www.emtmadrid.es/aplicaciones/Estimaciones.aspx?idStop=285&Estado=1&panel=6",
    "location_type": "",
    "parent_station": ""
  },
  {
    "stop_id": 286,
    "stop_code": 286,
    "stop_name": "Eduardo Dato",
    "stop_desc": "",
    "stop_lat": 40.43274,
    "stop_lon": -3.69433,
    "zone_id": "",
    "stop_url": "http://www.emtmadrid.es/aplicaciones/Estimaciones.aspx?idStop=286&Estado=1&panel=6",
    "location_type": "",
    "parent_station": ""
  },
  {
    "stop_id": 287,
    "stop_code": 287,
    "stop_name": "Eduardo Dato",
    "stop_desc": "",
    "stop_lat": 40.43301,
    "stop_lon": -3.69448,
    "zone_id": "",
    "stop_url": "http://www.emtmadrid.es/aplicaciones/Estimaciones.aspx?idStop=287&Estado=1&panel=6",
    "location_type": "",
    "parent_station": ""
  },
  {
    "stop_id": 288,
    "stop_code": 288,
    "stop_name": "Rubén Darío",
    "stop_desc": "",
    "stop_lat": 40.43285,
    "stop_lon": -3.69216,
    "zone_id": "",
    "stop_url": "http://www.emtmadrid.es/aplicaciones/Estimaciones.aspx?idStop=288&Estado=1&panel=6",
    "location_type": "",
    "parent_station": ""
  },
  {
    "stop_id": 289,
    "stop_code": 289,
    "stop_name": "Argüelles",
    "stop_desc": "",
    "stop_lat": 40.43047,
    "stop_lon": -3.71524,
    "zone_id": "",
    "stop_url": "http://www.emtmadrid.es/aplicaciones/Estimaciones.aspx?idStop=289&Estado=1&panel=6",
    "location_type": "",
    "parent_station": ""
  },
  {
    "stop_id": 292,
    "stop_code": 292,
    "stop_name": "Rafaela Ybarra - Centro Comercial",
    "stop_desc": "",
    "stop_lat": 40.36685,
    "stop_lon": -3.71243,
    "zone_id": "",
    "stop_url": "http://www.emtmadrid.es/aplicaciones/Estimaciones.aspx?idStop=292&Estado=1&panel=6",
    "location_type": "",
    "parent_station": ""
  },
  {
    "stop_id": 293,
    "stop_code": 293,
    "stop_name": "Alberto Alcocer - Padre Damián",
    "stop_desc": "",
    "stop_lat": 40.45863,
    "stop_lon": -3.68517,
    "zone_id": "",
    "stop_url": "http://www.emtmadrid.es/aplicaciones/Estimaciones.aspx?idStop=293&Estado=1&panel=6",
    "location_type": "",
    "parent_station": ""
  },
  {
    "stop_id": 294,
    "stop_code": 294,
    "stop_name": "Alberto Alcocer - Padre Damián",
    "stop_desc": "",
    "stop_lat": 40.45901,
    "stop_lon": -3.68512,
    "zone_id": "",
    "stop_url": "http://www.emtmadrid.es/aplicaciones/Estimaciones.aspx?idStop=294&Estado=1&panel=6",
    "location_type": "",
    "parent_station": ""
  },
  {
    "stop_id": 295,
    "stop_code": 295,
    "stop_name": "Alberto Alcocer - Paseo De La Habana",
    "stop_desc": "",
    "stop_lat": 40.4585,
    "stop_lon": -3.68234,
    "zone_id": "",
    "stop_url": "http://www.emtmadrid.es/aplicaciones/Estimaciones.aspx?idStop=295&Estado=1&panel=6",
    "location_type": "",
    "parent_station": ""
  },
  {
    "stop_id": 296,
    "stop_code": 296,
    "stop_name": "Alberto Alcocer - Paseo De La Habana",
    "stop_desc": "",
    "stop_lat": 40.4588,
    "stop_lon": -3.68236,
    "zone_id": "",
    "stop_url": "http://www.emtmadrid.es/aplicaciones/Estimaciones.aspx?idStop=296&Estado=1&panel=6",
    "location_type": "",
    "parent_station": ""
  },
  {
    "stop_id": 297,
    "stop_code": 297,
    "stop_name": "República Dominicana",
    "stop_desc": "",
    "stop_lat": 40.45858,
    "stop_lon": -3.67827,
    "zone_id": "",
    "stop_url": "http://www.emtmadrid.es/aplicaciones/Estimaciones.aspx?idStop=297&Estado=1&panel=6",
    "location_type": "",
    "parent_station": ""
  },
  {
    "stop_id": 298,
    "stop_code": 298,
    "stop_name": "República Dominicana",
    "stop_desc": "",
    "stop_lat": 40.45893,
    "stop_lon": -3.67833,
    "zone_id": "",
    "stop_url": "http://www.emtmadrid.es/aplicaciones/Estimaciones.aspx?idStop=298&Estado=1&panel=6",
    "location_type": "",
    "parent_station": ""
  },
  {
    "stop_id": 299,
    "stop_code": 299,
    "stop_name": "Chile",
    "stop_desc": "",
    "stop_lat": 40.45837,
    "stop_lon": -3.67545,
    "zone_id": "",
    "stop_url": "http://www.emtmadrid.es/aplicaciones/Estimaciones.aspx?idStop=299&Estado=1&panel=6",
    "location_type": "",
    "parent_station": ""
  },
  {
    "stop_id": 300,
    "stop_code": 300,
    "stop_name": "Costa Rica",
    "stop_desc": "",
    "stop_lat": 40.45832,
    "stop_lon": -3.67228,
    "zone_id": "",
    "stop_url": "http://www.emtmadrid.es/aplicaciones/Estimaciones.aspx?idStop=300&Estado=1&panel=6",
    "location_type": "",
    "parent_station": ""
  },
  {
    "stop_id": 302,
    "stop_code": 302,
    "stop_name": "José María Soler",
    "stop_desc": "",
    "stop_lat": 40.45877,
    "stop_lon": -3.66906,
    "zone_id": "",
    "stop_url": "http://www.emtmadrid.es/aplicaciones/Estimaciones.aspx?idStop=302&Estado=1&panel=6",
    "location_type": "",
    "parent_station": ""
  },
  {
    "stop_id": 303,
    "stop_code": 303,
    "stop_name": "José María Soler",
    "stop_desc": "",
    "stop_lat": 40.45903,
    "stop_lon": -3.6693,
    "zone_id": "",
    "stop_url": "http://www.emtmadrid.es/aplicaciones/Estimaciones.aspx?idStop=303&Estado=1&panel=6",
    "location_type": "",
    "parent_station": ""
  },
  {
    "stop_id": 304,
    "stop_code": 304,
    "stop_name": "Aster",
    "stop_desc": "",
    "stop_lat": 40.45709,
    "stop_lon": -3.6673,
    "zone_id": "",
    "stop_url": "http://www.emtmadrid.es/aplicaciones/Estimaciones.aspx?idStop=304&Estado=1&panel=6",
    "location_type": "",
    "parent_station": ""
  },
  {
    "stop_id": 305,
    "stop_code": 305,
    "stop_name": "Aster",
    "stop_desc": "",
    "stop_lat": 40.45755,
    "stop_lon": -3.66696,
    "zone_id": "",
    "stop_url": "http://www.emtmadrid.es/aplicaciones/Estimaciones.aspx?idStop=305&Estado=1&panel=6",
    "location_type": "",
    "parent_station": ""
  },
  {
    "stop_id": 306,
    "stop_code": 306,
    "stop_name": "Alfonso XIII - Alhelíes",
    "stop_desc": "",
    "stop_lat": 40.45519,
    "stop_lon": -3.66706,
    "zone_id": "",
    "stop_url": "http://www.emtmadrid.es/aplicaciones/Estimaciones.aspx?idStop=306&Estado=1&panel=6",
    "location_type": "",
    "parent_station": ""
  },
  {
    "stop_id": 307,
    "stop_code": 307,
    "stop_name": "Alfonso XIII - Alhelíes",
    "stop_desc": "",
    "stop_lat": 40.45523,
    "stop_lon": -3.66676,
    "zone_id": "",
    "stop_url": "http://www.emtmadrid.es/aplicaciones/Estimaciones.aspx?idStop=307&Estado=1&panel=6",
    "location_type": "",
    "parent_station": ""
  },
  {
    "stop_id": 308,
    "stop_code": 308,
    "stop_name": "Alfonso XIII - Ramón Y Cajal",
    "stop_desc": "",
    "stop_lat": 40.45319,
    "stop_lon": -3.66746,
    "zone_id": "",
    "stop_url": "http://www.emtmadrid.es/aplicaciones/Estimaciones.aspx?idStop=308&Estado=1&panel=6",
    "location_type": "",
    "parent_station": ""
  },
  {
    "stop_id": 309,
    "stop_code": 309,
    "stop_name": "Alfonso XIII - Ramón Y Cajal",
    "stop_desc": "",
    "stop_lat": 40.45316,
    "stop_lon": -3.6672,
    "zone_id": "",
    "stop_url": "http://www.emtmadrid.es/aplicaciones/Estimaciones.aspx?idStop=309&Estado=1&panel=6",
    "location_type": "",
    "parent_station": ""
  },
  {
    "stop_id": 310,
    "stop_code": 310,
    "stop_name": "Alfonso XIII - Pradillo",
    "stop_desc": "",
    "stop_lat": 40.45127,
    "stop_lon": -3.66765,
    "zone_id": "",
    "stop_url": "http://www.emtmadrid.es/aplicaciones/Estimaciones.aspx?idStop=310&Estado=1&panel=6",
    "location_type": "",
    "parent_station": ""
  },
  {
    "stop_id": 311,
    "stop_code": 311,
    "stop_name": "Alfonso XIII - Pradillo",
    "stop_desc": "",
    "stop_lat": 40.45098,
    "stop_lon": -3.66733,
    "zone_id": "",
    "stop_url": "http://www.emtmadrid.es/aplicaciones/Estimaciones.aspx?idStop=311&Estado=1&panel=6",
    "location_type": "",
    "parent_station": ""
  },
  {
    "stop_id": 312,
    "stop_code": 312,
    "stop_name": "Alfonso XIII",
    "stop_desc": "",
    "stop_lat": 40.44821,
    "stop_lon": -3.6675,
    "zone_id": "",
    "stop_url": "http://www.emtmadrid.es/aplicaciones/Estimaciones.aspx?idStop=312&Estado=1&panel=6",
    "location_type": "",
    "parent_station": ""
  },
  {
    "stop_id": 313,
    "stop_code": 313,
    "stop_name": "San Nazario",
    "stop_desc": "",
    "stop_lat": 40.44851,
    "stop_lon": -3.66595,
    "zone_id": "",
    "stop_url": "http://www.emtmadrid.es/aplicaciones/Estimaciones.aspx?idStop=313&Estado=1&panel=6",
    "location_type": "",
    "parent_station": ""
  },
  {
    "stop_id": 314,
    "stop_code": 314,
    "stop_name": "Chile",
    "stop_desc": "",
    "stop_lat": 40.45881,
    "stop_lon": -3.67598,
    "zone_id": "",
    "stop_url": "http://www.emtmadrid.es/aplicaciones/Estimaciones.aspx?idStop=314&Estado=1&panel=6",
    "location_type": "",
    "parent_station": ""
  },
  {
    "stop_id": 315,
    "stop_code": 315,
    "stop_name": "Gaínza",
    "stop_desc": "",
    "stop_lat": 40.36583,
    "stop_lon": -3.71429,
    "zone_id": "",
    "stop_url": "http://www.emtmadrid.es/aplicaciones/Estimaciones.aspx?idStop=315&Estado=1&panel=6",
    "location_type": "",
    "parent_station": ""
  },
  {
    "stop_id": 316,
    "stop_code": 316,
    "stop_name": "Rubén Darío",
    "stop_desc": "",
    "stop_lat": 40.43339,
    "stop_lon": -3.69148,
    "zone_id": "",
    "stop_url": "http://www.emtmadrid.es/aplicaciones/Estimaciones.aspx?idStop=316&Estado=1&panel=6",
    "location_type": "",
    "parent_station": ""
  },
  {
    "stop_id": 317,
    "stop_code": 317,
    "stop_name": "Plaza Chamberí",
    "stop_desc": "",
    "stop_lat": 40.43264,
    "stop_lon": -3.69715,
    "zone_id": "",
    "stop_url": "http://www.emtmadrid.es/aplicaciones/Estimaciones.aspx?idStop=317&Estado=1&panel=6",
    "location_type": "",
    "parent_station": ""
  },
  {
    "stop_id": 320,
    "stop_code": 320,
    "stop_name": "Embajadores - Ronda De Valencia",
    "stop_desc": "",
    "stop_lat": 40.40546,
    "stop_lon": -3.70164,
    "zone_id": "",
    "stop_url": "http://www.emtmadrid.es/aplicaciones/Estimaciones.aspx?idStop=320&Estado=1&panel=6",
    "location_type": "",
    "parent_station": ""
  },
  {
    "stop_id": 321,
    "stop_code": 321,
    "stop_name": "Embajadores - Ronda De Valencia",
    "stop_desc": "",
    "stop_lat": 40.40525,
    "stop_lon": -3.70144,
    "zone_id": "",
    "stop_url": "http://www.emtmadrid.es/aplicaciones/Estimaciones.aspx?idStop=321&Estado=1&panel=6",
    "location_type": "",
    "parent_station": ""
  },
  {
    "stop_id": 322,
    "stop_code": 322,
    "stop_name": "Embajadores - Acacias",
    "stop_desc": "",
    "stop_lat": 40.40471,
    "stop_lon": -3.70427,
    "zone_id": "",
    "stop_url": "http://www.emtmadrid.es/aplicaciones/Estimaciones.aspx?idStop=322&Estado=1&panel=6",
    "location_type": "",
    "parent_station": ""
  },
  {
    "stop_id": 323,
    "stop_code": 323,
    "stop_name": "Embajadores - Acacias",
    "stop_desc": "",
    "stop_lat": 40.40458,
    "stop_lon": -3.70389,
    "zone_id": "",
    "stop_url": "http://www.emtmadrid.es/aplicaciones/Estimaciones.aspx?idStop=323&Estado=1&panel=6",
    "location_type": "",
    "parent_station": ""
  },
  {
    "stop_id": 324,
    "stop_code": 324,
    "stop_name": "Acacias",
    "stop_desc": "",
    "stop_lat": 40.40394,
    "stop_lon": -3.70711,
    "zone_id": "",
    "stop_url": "http://www.emtmadrid.es/aplicaciones/Estimaciones.aspx?idStop=324&Estado=1&panel=6",
    "location_type": "",
    "parent_station": ""
  },
  {
    "stop_id": 325,
    "stop_code": 325,
    "stop_name": "Acacias",
    "stop_desc": "",
    "stop_lat": 40.40376,
    "stop_lon": -3.70698,
    "zone_id": "",
    "stop_url": "http://www.emtmadrid.es/aplicaciones/Estimaciones.aspx?idStop=325&Estado=1&panel=6",
    "location_type": "",
    "parent_station": ""
  },
  {
    "stop_id": 326,
    "stop_code": 326,
    "stop_name": "Olmos",
    "stop_desc": "",
    "stop_lat": 40.40314,
    "stop_lon": -3.71005,
    "zone_id": "",
    "stop_url": "http://www.emtmadrid.es/aplicaciones/Estimaciones.aspx?idStop=326&Estado=1&panel=6",
    "location_type": "",
    "parent_station": ""
  },
  {
    "stop_id": 327,
    "stop_code": 327,
    "stop_name": "Pirámides",
    "stop_desc": "",
    "stop_lat": 40.40134,
    "stop_lon": -3.71331,
    "zone_id": "",
    "stop_url": "http://www.emtmadrid.es/aplicaciones/Estimaciones.aspx?idStop=327&Estado=1&panel=6",
    "location_type": "",
    "parent_station": ""
  },
  {
    "stop_id": 328,
    "stop_code": 328,
    "stop_name": "Pirámides",
    "stop_desc": "",
    "stop_lat": 40.40114,
    "stop_lon": -3.71324,
    "zone_id": "",
    "stop_url": "http://www.emtmadrid.es/aplicaciones/Estimaciones.aspx?idStop=328&Estado=1&panel=6",
    "location_type": "",
    "parent_station": ""
  },
  {
    "stop_id": 329,
    "stop_code": 329,
    "stop_name": "Marqués De Vadillo",
    "stop_desc": "",
    "stop_lat": 40.39717,
    "stop_lon": -3.71728,
    "zone_id": "",
    "stop_url": "http://www.emtmadrid.es/aplicaciones/Estimaciones.aspx?idStop=329&Estado=1&panel=6",
    "location_type": "",
    "parent_station": ""
  },
  {
    "stop_id": 330,
    "stop_code": 330,
    "stop_name": "Marqués De Vadillo",
    "stop_desc": "",
    "stop_lat": 40.3972,
    "stop_lon": -3.71666,
    "zone_id": "",
    "stop_url": "http://www.emtmadrid.es/aplicaciones/Estimaciones.aspx?idStop=330&Estado=1&panel=6",
    "location_type": "",
    "parent_station": ""
  },
  {
    "stop_id": 331,
    "stop_code": 331,
    "stop_name": "General Ricardos - Iglesia",
    "stop_desc": "",
    "stop_lat": 40.3959,
    "stop_lon": -3.71905,
    "zone_id": "",
    "stop_url": "http://www.emtmadrid.es/aplicaciones/Estimaciones.aspx?idStop=331&Estado=1&panel=6",
    "location_type": "",
    "parent_station": ""
  },
  {
    "stop_id": 332,
    "stop_code": 332,
    "stop_name": "Guetaria - Ordicia",
    "stop_desc": "",
    "stop_lat": 40.36651,
    "stop_lon": -3.71543,
    "zone_id": "",
    "stop_url": "http://www.emtmadrid.es/aplicaciones/Estimaciones.aspx?idStop=332&Estado=1&panel=6",
    "location_type": "",
    "parent_station": ""
  },
  {
    "stop_id": 334,
    "stop_code": 334,
    "stop_name": "General Ricardos - Camino Viejo Leganés",
    "stop_desc": "",
    "stop_lat": 40.39371,
    "stop_lon": -3.72308,
    "zone_id": "",
    "stop_url": "http://www.emtmadrid.es/aplicaciones/Estimaciones.aspx?idStop=334&Estado=1&panel=6",
    "location_type": "",
    "parent_station": ""
  },
  {
    "stop_id": 336,
    "stop_code": 336,
    "stop_name": "Urgel",
    "stop_desc": "",
    "stop_lat": 40.39247,
    "stop_lon": -3.72538,
    "zone_id": "",
    "stop_url": "http://www.emtmadrid.es/aplicaciones/Estimaciones.aspx?idStop=336&Estado=1&panel=6",
    "location_type": "",
    "parent_station": ""
  },